trip_id,bus_id,route_id,stop_id,stop_name,arrival_time_scheduled,arrival_time_actual,departure_time_scheduled,departure_time_actual,passenger_count_boarding,passenger_count_alighting,day_of_week,date,weather_condition
TRIP_1,MH-BUS-8,MUM_Route_B,STOP_6,Thane,21:07:47,21:18:47,13:26:20,13:31:20,25.0,0.0,Sunday,2024-07-11,Partly Cloudy
TRIP_2,MH-BUS-3,MUM_Route_A,STOP_9,Dadar,02:26:49,02:24:49,12:59:58,12:59:58,56.0,14.0,Friday,2024-08-30,Rainy
TRIP_3,MH-BUS-1,MUM_Route_A,STOP_9,Andheri,07:14:42,07:30:42,07:21:31,07:24:31,25.0,41.0,Friday,2024-06-01,Cloudy
TRIP_4,MH-BUS-2,MUM_Route_A,STOP_8,Thane,02:41:29,02:59:29,22:03:48,22:10:48,-5.0,24.0,Wednesday,2024-06-10,monsoon
TRIP_5,MH-BUS-9,MUM_Route_E,STOP_2,Vashi,05:00:16,05:09:16,02:17:59,02:17:59,22.0,23.0,Saturday,2024-08-07,Partly Cloudy
TRIP_6,MH-BUS-5,MUM_Route_A,STOP_9,CST,23:37:10,,03:11:53,03:19:53,29.0,21.0,Saturday,2024-07-06,CLOUDY
TRIP_7,MH-BUS-8,MUM_Route_D,STOP_15,Andheri,11:20:46,11:23:46,02:29:10,02:33:10,38.0,34.0,Thursday,2024-06-21,Monsoon
TRIP_8,MH-BUS-4,MUM_Route_E,STOP_4,Bandra,00:50:56,00:47:56,05:22:26,05:24:26,,14.0,Friday,2024-07-30,Cloudy
TRIP_9,MH-BUS-6,MUM_Route_A,STOP_2,Nerul,15:07:43,15:14:43,19:41:53,19:47:53,26.0,10.0,Tuesday,2024-06-06,Humid
TRIP_10,MH-BUS-3,MUM_Route_A,STOP_7,Lower Parel,10:24:44,,16:45:40,16:51:40,19.0,36.0,Tuesday,2024-08-02,Cloudy
TRIP_11,MH-BUS-2,MUM_Route_C,STOP_19,Mulund,10:42:01,10:45:01,23:55:37,23:56:37,62.0,13.0,Saturday,2024-08-22,Cloudy
TRIP_12,MH-BUS-9,MUM_Route_E,STOP_7,Andheri,20:00:34,19:59:34,08:33:35,08:39:35,,0.0,Friday,2024-06-10,Cloudy
TRIP_13,MH-BUS-5,MUM_Route_B,STOP_20,Churchgate,04:19:01,,20:29:09,20:29:09,17.0,35.0,Monday,2024-06-10,
TRIP_14,MH-BUS-9,MUM_Route_B,STOP_20,Kurla,21:37:13,21:42:13,07:00:39,07:02:39,33.0,0.0,Monday,2024-08-30,Partly Cloudy
TRIP_15,MH-BUS-8,MUM_Route_E,STOP_7,CST,00:26:39,00:39:39,17:20:29,17:29:29,3.0,23.0,Saturday,2024-08-14,Humid
TRIP_16,MH-BUS-2,MUM_Route_A,STOP_3,Vashi,13:58:58,14:17:58,16:05:38,16:11:38,22.0,19.0,Sunday,2024-06-25,Rainy
TRIP_17,MH-BUS-8,MUM_Route_B,STOP_19,Panvel,13:54:54,13:58:54,22:22:31,22:23:31,46.0,40.0,Wednesday,2024-06-07,Rainy
TRIP_18,MH-BUS-7,MUM_Route_A,STOP_5,Colaba,03:48:44,03:53:44,08:54:28,09:00:28,30.0,28.0,Monday,2024-06-19,Partly Cloudy
TRIP_19,MH-BUS-10,MUM_Route_A,STOP_7,Borivali,03:25:55,03:43:55,11:15:56,11:22:56,0.0,11.0,Sunday,2024-06-06,Rainy
TRIP_20,MH-BUS-2,MUM_Route_C,STOP_1,Panvel,19:07:54,19:04:54,00:01:15,00:06:15,66.0,30.0,Wednesday,2024-08-11,Cloudy
TRIP_21,MH-BUS-2,MUM_Route_D,STOP_20,Vashi,09:07:45,09:14:45,09:56:58,10:01:58,29.0,5.0,Thursday,2024-07-30,Cloudy
TRIP_22,MH-BUS-5,MUM_Route_D,STOP_7,Nerul,21:17:28,21:17:28,13:12:32,13:16:32,39.0,0.0,Friday,2024-08-07,Humid
TRIP_23,MH-BUS-5,MUM_Route_C,STOP_5,Mulund,11:08:21,11:18:21,08:07:01,08:17:01,47.0,18.0,Sunday,2024-08-23,Rainy
TRIP_24,MH-BUS-7,MUM_Route_B,STOP_8,Dadar,08:33:40,08:30:40,00:26:41,00:29:41,,12.0,Friday,2024-07-24,Rainy
TRIP_25,MH-BUS-6,MUM_Route_E,STOP_3,Thane,16:17:28,16:29:28,05:11:08,05:14:08,35.0,0.0,Sunday,2024-08-24,Humid
TRIP_26,MH-BUS-10,MUM_Route_B,STOP_3,Andheri,09:31:02,09:34:02,23:23:50,23:31:50,7.0,29.0,Tuesday,2024-07-08,Cloudy
TRIP_27,MH-BUS-4,MUM_Route_A,STOP_5,Churchgate,06:26:44,06:39:44,04:24:30,04:34:30,35.0,38.0,Friday,2024-07-03,Sunny
TRIP_28,MH-BUS-7,MUM_Route_D,STOP_5,Churchgate,12:10:58,12:27:58,03:30:04,033404,27.0,31.0,Friday,2024-08-18,Sunny
TRIP_29,MH-BUS-3,MUM_Route_D,STOP_17,Ghatkopar,06:59:05,07:18:05,07:46:46,07:46:46,30.0,,Friday,2024-06-24,Humid
TRIP_30,MH-BUS-10,MUM_Route_C,STOP_7,Panvel,09:53:02,09:54:02,17:33:58,17:37:58,43.0,19.0,Saturday,2024-07-29,Cloudy
TRIP_31,MH-BUS-9,MUM_Route_C,STOP_19,Vashi,07:27:20,07:32:20,12:34:00,12:38:00,14.0,25.0,Saturday,2024-06-26,Humid
TRIP_32,MH-BUS-3,MUM_Route_C,STOP_14,Chembur,23:46:52,23:52:52,23:20:23,23:29:23,28.0,4.0,Monday,2024-07-27,Sunny
TRIP_33,MH-BUS-9,MUM_Route_D,STOP_5,Kurla,09:23:32,09:37:32,04:19:22,04:25:22,37.0,0.0,Thursday,2024-07-26,Monsoon
TRIP_34,MH-BUS-9,MUM_Route_E,STOP_11,Bandra,00:23:50,00:38:50,00:24:14,00:32:14,46.0,38.0,Sunday,2024-06-10,
TRIP_35,MH-BUS-1,MUM_Route_B,STOP_14,Powai,17:41:51,17:36:51,08:22:41,08:24:41,0.0,8.0,Thursday,2024-07-01,Monsoon
TRIP_36,MH-BUS-1,MUM_Route_C,STOP_9,Mulund,09:45:55,09:57:55,18:42:35,18:46:35,21.0,5.0,Wednesday,2024-07-07,Monsoon
TRIP_37,MH-BUS-3,MUM_Route_B,STOP_10,Thane,05:44:56,05:59:56,01:38:34,01:41:34,6.0,42.0,Sunday,2024-08-25,
TRIP_38,MH-BUS-8,MUM_Route_A,STOP_5,Kharghar,16:41:18,16:36:18,00:09:27,00:12:27,5.0,31.0,Tuesday,2024-07-25,Humid
TRIP_39,MH-BUS-5,MUM_Route_D,STOP_10,Panvel,01:12:34,01:16:34,18:18:19,18:18:19,7.0,37.0,Wednesday,2024-07-27,Sunny
TRIP_40,MH-BUS-9,MUM_Route_B,STOP_19,Dadar,20:18:12,08:13:12PM,03:42:03,03:51:03,35.0,,Sunday,2024-07-18,Partly Cloudy
TRIP_41,MH-BUS-3,MUM_Route_B,STOP_8,Andheri,19:09:50,19:13:50,12:56:24,12:59:24,34.0,44.0,Friday,2024-07-02,Monsoon
TRIP_42,MH-BUS-7,MUM_Route_C,STOP_2,Panvel,08:52:35,08:53:35AM,05:27:06,,28.0,28.0,Wednesday,2024-08-04,Cloudy
TRIP_43,MH-BUS-4,MUM_Route_B,STOP_9,Kharghar,15:09:25,15:10:25,17:07:36,170936,0.0,39.0,Friday,2024-06-28,Cloudy
TRIP_44,MH-BUS-5,MUM_Route_B,STOP_6,Chembur,07:03:45,07:20:45,21:34:53,21:42:53,30.0,10.0,Wednesday,2024-08-27,Partly Cloudy
TRIP_45,MH-BUS-6,MUM_Route_B,STOP_15,Panvel,15:36:45,15:48:45,00:15:41,00:24:41,18.0,42.0,Friday,2024-08-29,Humid
TRIP_46,MH-BUS-3,MUM_Route_B,STOP_8,Ghatkopar,03:15:47,03:32:47,17:24:04,17:29:04,21.0,8.0,Sunday,2024-07-21,Sunny
TRIP_47,MH-BUS-1,MUM_Route_B,STOP_7,Kurla,04:50:42,04:50:42,04:58:45,05:00:45,0.0,18.0,Tuesday,2024-08-29,Cloudy
TRIP_48,MH-BUS-2,MUM_Route_B,STOP_5,Panvel,05:41:30,05:48:30,16:09:27,16:17:27,,2.0,Tuesday,2024-08-18,Partly Cloudy
TRIP_49,MH-BUS-1,MUM_Route_D,STOP_10,Ghatkopar,05:45:31,05:56:31,23:08:38,23:16:38,23.0,28.0,Monday,2024-06-20,Partly Cloudy
TRIP_50,MH-BUS-5,MUM_Route_B,STOP_2,Nerul,23:19:48,23:14:48,23:50:37,23:59:37,16.0,10.0,Friday,2024-06-30,Partly Cloudy
TRIP_51,MH-BUS-6,MUM_Route_C,STOP_9,CST,05:17:06,05:30:06,21:29:46,21:39:46,13.0,30.0,Monday,2024-07-06,Monsoon
TRIP_52,MH-BUS-5,MUM_Route_E,STOP_20,Colaba,17:03:26,17:16:26,03:05:53,03:08:53,65.0,9.0,Tuesday,2024-07-22,Rainy
TRIP_53,MH-BUS-5,MUM_Route_E,STOP_18,Lower Parel,01:26:11,01:36:11,10:13:23,10:16:23,24.0,39.0,Sunday,2024-08-21,Cloudy
TRIP_54,MH-BUS-1,MUM_Route_B,STOP_5,Ghatkopar,08:08:31,08:09:31,23:10:38,23:15:38,0.0,10.0,Tuesday,2024-08-05,Monsoon
TRIP_55,MH-BUS-4,MUM_Route_C,STOP_20,Worli,16:59:03,17:07:03,05:17:46,05:17:46,24.0,22.0,Monday,2024-06-25,Rainy
TRIP_56,MH-BUS-1,MUM_Route_D,STOP_12,Worli,01:30:19,01:33:19,23:04:38,,0.0,6.0,Sunday,2024-08-24,Partly Cloudy
TRIP_57,MH-BUS-7,MUM_Route_D,STOP_7,Dadar,23:45:34,,02:14:52,02:15:52,8.0,27.0,Saturday,2024-07-29,Sunny
TRIP_58,MH-BUS-5,MUM_Route_D,STOP_9,Kurla,20:33:40,20:41:40,07:08:52,07:16:52,0.0,42.0,Tuesday,2024-06-01,Sunny
TRIP_59,MH-BUS-7,MUM_Route_B,STOP_17,Colaba,12:43:40,12:44:40,00:49:56,00:49:56,9.0,13.0,Monday,2024-06-21,Humid
TRIP_60,MH-BUS-1,MUM_Route_E,STOP_2,Borivali,10:18:48,10:35:48,08:37:01,08:39:01AM,31.0,33.0,Wednesday,2024-07-02,Cloudy
TRIP_61,MH-BUS-8,MUM_Route_B,STOP_15,Churchgate,07:13:39,07:18:39,02:42:21,,14.0,0.0,Thursday,2024-07-05,Cloudy
TRIP_62,MH-BUS-2,MUM_Route_B,STOP_18,Borivali,10:38:22,10:39:22,05:21:46,05:28:46,20.0,22.0,Thursday,2024-07-17,Cloudy
TRIP_63,MH-BUS-8,MUM_Route_A,STOP_17,Andheri,23:20:05,23:35:05,11:04:20,11:07:20,24.0,9.0,Monday,2024-07-08,Humid
TRIP_64,MH-BUS-3,MUM_Route_E,STOP_17,Andheri,10:41:20,10:51:20,23:07:49,23:08:49,30.0,-2.0,Thursday,2024-08-10,Cloudy
TRIP_65,MH-BUS-4,MUM_Route_B,STOP_14,Ghatkopar,15:05:49,03:25:49PM,02:33:03,02:40:03,45.0,7.0,Saturday,2024-08-17,Monsoon
TRIP_66,MH-BUS-9,MUM_Route_E,STOP_19,Powai,22:23:31,22:23:31,14:29:57,14:39:57,31.0,2.0,Monday,2024-06-29,Monsoon
TRIP_67,MH-BUS-3,MUM_Route_E,STOP_14,Kurla,11:27:47,11:46:47,16:21:34,16:25:34,62.0,19.0,Sunday,2024-06-30,Partly Cloudy
TRIP_68,MH-BUS-4,MUM_Route_E,STOP_11,Thane,16:59:13,17:04:13,10:36:21,10:36:21,19.0,14.0,Monday,2024-08-09,humid
TRIP_69,MH-BUS-3,MUM_Route_A,STOP_8,Mulund,10:36:15,10:37:15,21:05:21,21:10:21,17.0,-2.0,Saturday,2024-08-14,Rainy
TRIP_70,MH-BUS-5,MUM_Route_C,STOP_13,Panvel,19:49:03,20:07:03,08:56:45,09:00:45,,,Tuesday,2024-08-03,Rainy
TRIP_71,MH-BUS-4,MUM_Route_C,STOP_12,Vashi,09:55:39,10:10:39,05:47:57,05:56:57,20.0,13.0,Monday,2024-08-25,Cloudy
TRIP_72,MH-BUS-3,MUM_Route_E,STOP_19,Kurla,08:27:22,08:36:22,08:34:46,08:43:46,29.0,29.0,Sunday,2024-06-25,
TRIP_73,MH-BUS-10,MUM_Route_E,STOP_18,Lower Parel,23:02:57,23:20:57,15:15:43,15:24:43,16.0,19.0,Monday,2024-07-15,Monsoon
TRIP_74,MH-BUS-7,MUM_Route_E,STOP_9,Churchgate,09:16:53,09:26:53,09:29:49,09:34:49,29.0,1.0,Sunday,2024-06-23,Cloudy
TRIP_75,MH-BUS-2,MUM_Route_A,STOP_2,Mulund,18:35:48,183948,00:17:27,00:22:27,17.0,12.0,Tuesday,2024-08-28,Cloudy
TRIP_76,MH-BUS-6,MUM_Route_A,STOP_12,Vashi,09:29:49,09:24:49,17:41:25,17:43:25,7.0,13.0,Tuesday,2024-07-02,Cloudy
TRIP_77,MH-BUS-2,MUM_Route_C,STOP_12,Chembur,21:33:18,21:46:18,05:42:28,05:50:28,27.0,0.0,Friday,2024-08-22,Cloudy
TRIP_78,MH-BUS-1,MUM_Route_E,STOP_10,Dadar,14:36:49,14:40:49,09:27:22,09:32:22,46.0,25.0,Thursday,2024-06-29,Cloudy
TRIP_79,MH-BUS-7,MUM_Route_B,STOP_7,Kurla,17:15:25,17:22:25,20:29:16,20:29:16,1.0,,Tuesday,2024-08-14,Monsoon
TRIP_80,MH-BUS-7,MUM_Route_E,STOP_13,Dadar,11:54:50,12:06:50,13:59:36,,9.0,1.0,Thursday,2024-07-06,Rainy
TRIP_81,MH-BUS-10,MUM_Route_E,STOP_1,Ghatkopar,08:04:55,08:22:55,11:26:39,11:26:39,0.0,45.0,Sunday,2024-06-23,Monsoon
TRIP_82,MH-BUS-4,MUM_Route_E,STOP_7,Kharghar,03:50:41,04:03:41,04:01:38,04:01:38,43.0,30.0,Saturday,2024-06-07,MONSOON
TRIP_83,MH-BUS-6,MUM_Route_A,STOP_10,Worli,07:39:03,,23:17:12,23:22:12,20.0,26.0,Saturday,2024-06-08,Humid
TRIP_84,MH-BUS-2,MUM_Route_A,STOP_10,Nerul,23:24:58,23:22:58,05:50:13,05:53:13,27.0,31.0,Monday,2024-06-13,Cloudy
TRIP_85,MH-BUS-7,MUM_Route_C,STOP_15,Lower Parel,12:36:26,12:49:26,09:12:56,09:12:56,11.0,1.0,Thursday,2024-07-19,Sunny
TRIP_86,MH-BUS-8,MUM_Route_D,STOP_6,Chembur,04:32:32,04:30:32,08:55:53,08:59:53,40.0,26.0,Friday,2024-08-12,Cloudy
TRIP_87,MH-BUS-7,MUM_Route_A,STOP_13,Kurla,02:42:51,,13:10:04,13:12:04,53.0,19.0,Saturday,2024-08-22,Rainy
TRIP_88,MH-BUS-10,MUM_Route_B,STOP_3,Thane,23:41:34,23:36:34,21:23:20,09:23:20PM,50.0,45.0,Friday,2024-06-18,Partly Cloudy
TRIP_89,MH-BUS-2,MUM_Route_D,STOP_17,Thane,01:17:11,01:24:11,15:31:55,15:39:55,0.0,15.0,Wednesday,2024-08-26,Sunny
TRIP_90,MH-BUS-4,MUM_Route_B,STOP_12,Panvel,13:08:03,13:16:03,13:33:05,13:37:05,37.0,8.0,Wednesday,2024-07-17,Cloudy
TRIP_91,MH-BUS-5,MUM_Route_A,STOP_13,Andheri,21:14:23,,23:46:04,,0.0,34.0,Tuesday,2024-07-20,Cloudy
TRIP_92,MH-BUS-4,MUM_Route_D,STOP_4,Kharghar,02:58:36,03:03:36,16:35:40,04:44:40PM,59.0,39.0,Sunday,2024-06-28,Monsoon
TRIP_93,MH-BUS-3,MUM_Route_E,STOP_20,Powai,23:32:17,23:44:17,10:22:49,10:32:49,22.0,0.0,Sunday,2024-08-04,Sunny
TRIP_94,MH-BUS-9,MUM_Route_A,STOP_3,Dadar,13:25:51,13:44:51,21:41:52,21:49:52,30.0,17.0,Sunday,2024-07-07,Sunny
TRIP_95,MH-BUS-4,MUM_Route_C,STOP_5,Chembur,22:06:50,22:08:50,17:34:07,17:35:07,24.0,,Saturday,2024-06-12,Humid
TRIP_96,MH-BUS-10,MUM_Route_A,STOP_11,Borivali,11:24:17,11:21:17,12:46:07,12:51:07,48.0,14.0,Thursday,2024-08-03,Sunny
TRIP_97,MH-BUS-10,MUM_Route_D,STOP_1,Vashi,11:01:52,11:16:52,00:01:55,00:01:55,4.0,0.0,Thursday,2024-07-08,Humid
TRIP_98,MH-BUS-8,MUM_Route_B,STOP_11,Powai,04:39:50,04:56:50,14:09:54,14:16:54,32.0,,Monday,2024-07-13,
TRIP_99,MH-BUS-2,MUM_Route_E,STOP_2,Nerul,01:20:59,01:22:59,18:41:05,18:49:05,25.0,9.0,Wednesday,2024-06-02,Humid
TRIP_100,MH-BUS-2,MUM_Route_D,STOP_7,Panvel,10:36:20,10:40:20,15:05:30,15:14:30,30.0,19.0,Saturday,2024-06-02,sunny
TRIP_101,MH-BUS-1,MUM_Route_B,STOP_8,Kurla,12:50:11,12:55:11,05:10:53,05:18:53,13.0,38.0,Tuesday,2024-06-15,
TRIP_102,MH-BUS-8,MUM_Route_C,STOP_3,Panvel,11:30:27,11:43:27,19:23:40,19:27:40,6.0,12.0,Friday,2024-07-14,
TRIP_103,MH-BUS-7,MUM_Route_C,STOP_5,Powai,07:53:52,08:12:52,17:09:50,17:14:50,39.0,35.0,Tuesday,2024-06-15,Cloudy
TRIP_104,MH-BUS-3,MUM_Route_A,STOP_17,Kurla,23:06:24,23:24:24,16:34:25,16:35:25,37.0,18.0,Tuesday,2024-07-22,Sunny
TRIP_105,MH-BUS-7,MUM_Route_E,STOP_3,Worli,07:17:06,07:14:06,03:45:13,03:54:13,2.0,,Monday,2024-07-18,Partly Cloudy
TRIP_106,MH-BUS-7,MUM_Route_A,STOP_13,Nerul,16:34:16,,00:19:19,00:29:19,,23.0,Thursday,2024-08-03,
TRIP_107,MH-BUS-2,MUM_Route_E,STOP_7,Powai,01:08:24,01:19:24,06:26:37,06:32:37,3.0,0.0,Monday,2024-07-08,Partly Cloudy
TRIP_108,MH-BUS-5,MUM_Route_D,STOP_17,Colaba,06:12:57,06:19:57,20:51:58,20:59:58,27.0,40.0,Sunday,2024-08-26,Sunny
TRIP_109,MH-BUS-1,MUM_Route_D,STOP_16,Vashi,22:40:04,22:49:04,09:40:06,09:40:06,23.0,8.0,Saturday,2024-07-05,Sunny
TRIP_110,MH-BUS-4,MUM_Route_B,STOP_19,Andheri,13:18:41,13:34:41,21:47:33,21:55:33,8.0,25.0,Monday,2024-08-15,Sunny
TRIP_111,MH-BUS-1,MUM_Route_A,STOP_11,Colaba,10:49:36,11:07:36,12:18:31,12:27:31,44.0,,Tuesday,2024-07-21,Rainy
TRIP_112,MH-BUS-6,MUM_Route_A,STOP_9,Vashi,07:00:07,07:05:07,10:02:55,10:06:55,11.0,9.0,Monday,2024-07-13,Sunny
TRIP_113,MH-BUS-1,MUM_Route_B,STOP_13,CST,16:44:58,16:46:58,06:41:36,06:41:36,0.0,45.0,Sunday,2024-06-12,Monsoon
TRIP_114,MH-BUS-6,MUM_Route_C,STOP_18,CST,02:28:36,02:35:36,23:42:02,23:47:02,27.0,30.0,Sunday,2024-07-18,Monsoon
TRIP_115,MH-BUS-5,MUM_Route_E,STOP_12,Churchgate,21:27:24,21:44:24,16:31:55,16:36:55,22.0,12.0,Friday,2024-06-09,Partly Cloudy
TRIP_116,MH-BUS-7,MUM_Route_E,STOP_1,Dadar,11:12:45,11:14:45,04:19:04,04:20:04,,15.0,Tuesday,2024-08-28,Rainy
TRIP_117,MH-BUS-10,MUM_Route_A,STOP_11,Bandra,03:30:55,03:25:55,20:53:00,20:58:00,0.0,15.0,Monday,2024-08-15,Humid
TRIP_118,MH-BUS-3,MUM_Route_C,STOP_13,Borivali,23:35:21,23:44:21,14:20:58,14:25:58,10.0,41.0,Saturday,2024-07-16,Partly Cloudy
TRIP_119,MH-BUS-10,MUM_Route_A,STOP_4,Chembur,23:38:27,23:47:27,23:21:52,23:27:52,35.0,31.0,Saturday,2024-08-03,Partly Cloudy
TRIP_120,MH-BUS-8,MUM_Route_A,STOP_20,Bandra,01:10:29,01:21:29,00:37:13,00:37:13,50.0,24.0,Saturday,2024-08-23,Cloudy
TRIP_121,MH-BUS-1,MUM_Route_C,STOP_15,Kurla,08:44:59,08:55:59,20:44:48,,45.0,37.0,Wednesday,2024-06-20,Partly Cloudy
TRIP_122,MH-BUS-4,MUM_Route_A,STOP_11,Bandra,22:20:44,22:16:44,19:23:50,19:28:50,27.0,19.0,Tuesday,2024-07-31,Humid
TRIP_123,MH-BUS-9,MUM_Route_A,STOP_3,Worli,23:34:38,23:46:38,12:57:08,12:58:08,19.0,8.0,Saturday,2024-07-29,Cloudy
TRIP_124,MH-BUS-4,MUM_Route_D,STOP_6,Bandra,01:04:31,01:16:31,23:06:02,11:12:02PM,37.0,28.0,Tuesday,2024-08-29,Cloudy
TRIP_125,MH-BUS-4,MUM_Route_E,STOP_10,Nerul,00:10:39,00:08:39,23:38:58,23:44:58,56.0,14.0,Sunday,2024-07-30,Monsoon
TRIP_126,MH-BUS-1,MUM_Route_D,STOP_15,Chembur,15:45:25,16:00:25,00:05:27,00:08:27,24.0,20.0,Tuesday,2024-07-29,Cloudy
TRIP_127,MH-BUS-3,MUM_Route_B,STOP_14,Thane,04:03:21,04:04:21,17:47:11,17:48:11,16.0,35.0,Wednesday,2024-06-01,Sunny
TRIP_128,MH-BUS-6,MUM_Route_A,STOP_15,Worli,04:38:05,04:50:05,07:11:36,07:20:36,29.0,13.0,Saturday,2024-07-18,Cloudy
TRIP_129,MH-BUS-4,MUM_Route_D,STOP_5,Lower Parel,13:21:12,13:38:12,22:27:01,22:32:01,3.0,17.0,Saturday,2024-06-21,Monsoon
TRIP_130,MH-BUS-8,MUM_Route_C,STOP_7,Andheri,18:59:03,19:03:03,22:59:11,23:09:11,0.0,,Thursday,2024-08-23,Monsoon
TRIP_131,MH-BUS-4,MUM_Route_E,STOP_6,Ghatkopar,08:58:25,090225,23:54:30,00:01:30,21.0,0.0,Monday,2024-07-04,Sunny
TRIP_132,MH-BUS-10,MUM_Route_B,STOP_10,Belapur,17:03:44,17:00:44,14:33:44,14:34:44,45.0,21.0,Saturday,2024-07-26,Humid
TRIP_133,MH-BUS-9,MUM_Route_B,STOP_11,Chembur,19:03:21,19:13:21,03:36:49,03:36:49,23.0,16.0,Sunday,2024-07-17,Monsoon
TRIP_134,MH-BUS-4,MUM_Route_D,STOP_18,Nerul,07:37:00,07:57:00,13:31:56,13:33:56,6.0,0.0,Tuesday,2024-08-01,Sunny
TRIP_135,MH-BUS-6,MUM_Route_C,STOP_2,Thane,22:12:54,22:29:54,00:14:29,00:20:29,15.0,4.0,Saturday,2024-07-16,Rainy
TRIP_136,MH-BUS-9,MUM_Route_D,STOP_5,Ghatkopar,20:56:09,21:16:09,20:27:43,20:33:43,15.0,0.0,Thursday,2024-08-06,Partly Cloudy
TRIP_137,MH-BUS-9,MUM_Route_E,STOP_10,Andheri,21:56:36,21:58:36,17:17:29,17:21:29,0.0,12.0,Wednesday,2024-08-26,Cloudy
TRIP_138,MH-BUS-4,MUM_Route_B,STOP_13,Kurla,01:53:01,01:52:01,16:41:22,16:49:22,19.0,20.0,Sunday,2024-07-07,Partly Cloudy
TRIP_139,MH-BUS-1,MUM_Route_A,STOP_15,Borivali,07:58:28,08:12:28,17:59:01,18:08:01,7.0,21.0,Sunday,2024-06-27,Monsoon
TRIP_140,MH-BUS-8,MUM_Route_A,STOP_10,Borivali,00:27:24,00:37:24,15:38:14,15:43:14,28.0,14.0,Monday,2024-08-13,Partly Cloudy
TRIP_141,MH-BUS-3,MUM_Route_B,STOP_13,Churchgate,04:57:22,05:00:22,02:04:00,02:05:00,48.0,18.0,Saturday,2024-08-09,Rainy
TRIP_142,MH-BUS-7,MUM_Route_D,STOP_9,Andheri,07:18:04,07:38:04,14:41:40,14:45:40,4.0,15.0,Saturday,2024-07-07,Rainy
TRIP_143,MH-BUS-8,MUM_Route_B,STOP_10,Kurla,19:58:41,19:56:41,02:27:02,02:31:02,10.0,0.0,Sunday,2024-07-01,Partly Cloudy
TRIP_144,MH-BUS-3,MUM_Route_A,STOP_5,Mulund,09:42:59,09:47:59,23:07:16,23:09:16,29.0,9.0,Wednesday,2024-06-06,Partly Cloudy
TRIP_145,MH-BUS-7,MUM_Route_C,STOP_20,Vashi,01:18:57,01:31:57,06:36:04,06:43:04,23.0,12.0,Sunday,2024-06-26,Cloudy
TRIP_146,MH-BUS-10,MUM_Route_B,STOP_11,Vashi,14:26:35,14:29:35,04:46:50,04:54:50,48.0,40.0,Tuesday,2024-06-30,Sunny
TRIP_147,MH-BUS-6,MUM_Route_E,STOP_18,Belapur,12:29:46,12:28:46,18:59:37,19:09:37,0.0,13.0,Friday,2024-07-19,Sunny
TRIP_148,MH-BUS-2,MUM_Route_D,STOP_15,Worli,01:07:57,01:10:57,18:00:22,18:06:22,7.0,25.0,Friday,2024-08-25,Cloudy
TRIP_149,MH-BUS-2,MUM_Route_B,STOP_10,Colaba,22:55:36,23:05:36,06:20:23,06:22:23,24.0,0.0,Saturday,2024-08-17,Monsoon
TRIP_150,MH-BUS-6,MUM_Route_D,STOP_4,Belapur,18:48:12,19:03:12,21:14:09,21:14:09,2.0,16.0,Saturday,2024-08-21,Humid
TRIP_151,MH-BUS-3,MUM_Route_A,STOP_4,CST,15:07:28,03:09:28PM,00:07:49,00:11:49,10.0,0.0,Wednesday,2024-07-23,Cloudy
TRIP_152,MH-BUS-9,MUM_Route_A,STOP_16,Lower Parel,13:22:15,13:25:15,22:05:18,22:07:18,29.0,6.0,Monday,2024-08-17,Sunny
TRIP_153,MH-BUS-10,MUM_Route_B,STOP_6,Andheri,11:32:33,11:44:33,17:53:57,17:53:57,0.0,-2.0,Sunday,2024-07-26,Monsoon
TRIP_154,MH-BUS-10,MUM_Route_D,STOP_15,Worli,22:35:54,22:35:54,06:11:58,06:11:58,6.0,24.0,Saturday,2024-06-19,Cloudy
TRIP_155,MH-BUS-6,MUM_Route_A,STOP_3,Kurla,10:47:52,10:57:52,17:00:02,17:01:02,47.0,,Friday,2024-07-25,Rainy
TRIP_156,MH-BUS-4,MUM_Route_C,STOP_15,Colaba,06:17:16,06:28:16,07:49:42,07:51:42,25.0,23.0,Sunday,2024-08-05,Humid
TRIP_157,MH-BUS-9,MUM_Route_B,STOP_5,Nerul,08:45:46,08:57:46,00:50:31,00:50:31,23.0,21.0,Friday,2024-06-17,Cloudy
TRIP_158,MH-BUS-9,MUM_Route_D,STOP_15,Borivali,08:40:39,08:48:39,10:23:08,10:24:08,37.0,38.0,Friday,2024-08-30,Rainy
TRIP_159,MH-BUS-5,MUM_Route_A,STOP_5,Andheri,13:54:41,14:14:41,18:09:21,18:14:21,27.0,40.0,Wednesday,2024-08-07,Cloudy
TRIP_160,MH-BUS-6,MUM_Route_B,STOP_16,Churchgate,10:16:40,10:24:40,09:44:54,09:48:54,27.0,26.0,Thursday,2024-07-07,Monsoon
TRIP_161,MH-BUS-7,MUM_Route_B,STOP_9,Ghatkopar,08:23:30,08:35:30,10:42:31,10:48:31,,24.0,Tuesday,2024-07-02,Monsoon
TRIP_162,MH-BUS-2,MUM_Route_A,STOP_17,Kharghar,01:34:46,01:42:46,16:45:39,16:45:39,25.0,8.0,Saturday,2024-06-27,Monsoon
TRIP_163,MH-BUS-10,MUM_Route_E,STOP_6,CST,19:15:21,,08:42:29,08:50:29,11.0,32.0,Thursday,2024-08-09,Monsoon
TRIP_164,MH-BUS-2,MUM_Route_B,STOP_15,CST,08:58:37,09:11:37,17:18:45,17:23:45,32.0,10.0,Saturday,2024-06-21,Cloudy
TRIP_165,MH-BUS-4,MUM_Route_C,STOP_14,Kharghar,21:22:10,21:40:10,05:45:03,05:54:03,51.0,13.0,Friday,2024-07-03,Monsoon
TRIP_166,MH-BUS-2,MUM_Route_C,STOP_11,Colaba,23:53:22,00:12:22,13:27:53,13:35:53,28.0,3.0,Sunday,2024-08-19,Rainy
TRIP_167,MH-BUS-7,MUM_Route_E,STOP_3,Belapur,01:35:43,01:42:43,16:14:26,16:21:26,34.0,20.0,Thursday,2024-06-10,Partly Cloudy
TRIP_168,MH-BUS-2,MUM_Route_E,STOP_5,Vashi,13:40:21,13:36:21,04:49:12,04:56:12,40.0,,Thursday,2024-06-18,Monsoon
TRIP_169,MH-BUS-10,MUM_Route_E,STOP_5,Thane,09:28:36,09:48:36,03:09:10,03:10:10,25.0,23.0,Tuesday,2024-07-14,
TRIP_170,MH-BUS-4,MUM_Route_D,STOP_12,Worli,14:36:07,14:55:07,04:44:27,04:45:27,35.0,,Wednesday,2024-07-31,Rainy
TRIP_171,MH-BUS-6,MUM_Route_D,STOP_14,Colaba,19:47:38,19:51:38,04:22:08,04:26:08,35.0,25.0,Sunday,2024-06-14,Humid
TRIP_172,MH-BUS-10,MUM_Route_B,STOP_10,CST,14:56:15,15:13:15,05:38:42,05:39:42,37.0,6.0,Tuesday,2024-06-05,RAINY
TRIP_173,MH-BUS-1,MUM_Route_E,STOP_7,CST,10:15:25,10:25:25,02:13:07,02:15:07,40.0,17.0,Tuesday,2024-08-23,
TRIP_174,MH-BUS-2,MUM_Route_A,STOP_7,Chembur,12:30:57,12:40:57,06:21:37,06:31:37,34.0,6.0,Wednesday,2024-08-30,Rainy
TRIP_175,MH-BUS-9,MUM_Route_B,STOP_16,Bandra,17:41:37,17:37:37,08:47:23,08:48:23,34.0,5.0,Friday,2024-08-13,Sunny
TRIP_176,MH-BUS-6,MUM_Route_C,STOP_15,Vashi,09:29:37,09:41:37,21:42:09,21:49:09,17.0,14.0,Wednesday,2024-08-09,Monsoon
TRIP_177,MH-BUS-8,MUM_Route_E,STOP_11,CST,23:29:04,23:29:04,03:11:45,03:17:45,23.0,18.0,Tuesday,2024-07-11,Sunny
TRIP_178,MH-BUS-3,MUM_Route_A,STOP_1,Lower Parel,21:26:49,21:26:49,12:58:54,13:02:54,34.0,15.0,Tuesday,2024-08-05,Monsoon
TRIP_179,MH-BUS-4,MUM_Route_D,STOP_5,Nerul,23:19:37,23:39:37,03:46:25,03:55:25,44.0,0.0,Monday,2024-06-10,rainy
TRIP_180,MH-BUS-1,MUM_Route_C,STOP_11,Borivali,19:33:17,07:33:17PM,10:20:41,10:24:41,21.0,59.0,Saturday,2024-06-21,
TRIP_181,MH-BUS-5,MUM_Route_B,STOP_1,Vashi,19:27:15,19:47:15,08:02:28,08:03:28,32.0,19.0,Saturday,2024-07-01,Humid
TRIP_182,MH-BUS-10,MUM_Route_D,STOP_4,Andheri,10:25:48,10:28:48,00:35:55,00:36:55,0.0,-2.0,Sunday,2024-08-16,Monsoon
TRIP_183,MH-BUS-4,MUM_Route_D,STOP_7,Colaba,17:04:55,17:09:55,19:15:26,,16.0,5.0,Monday,2024-07-18,Partly Cloudy
TRIP_184,MH-BUS-1,MUM_Route_D,STOP_1,Churchgate,23:01:45,23:21:45,16:50:06,16:53:06,46.0,43.0,Sunday,2024-06-12,Cloudy
TRIP_185,MH-BUS-10,MUM_Route_A,STOP_1,Vashi,02:59:28,03:11:28,07:27:43,07:33:43,11.0,22.0,Friday,2024-06-27,Humid
TRIP_186,MH-BUS-6,MUM_Route_A,STOP_8,Chembur,02:04:49,02:19:49,15:12:51,15:19:51,,25.0,Friday,2024-08-04,
TRIP_187,MH-BUS-5,MUM_Route_D,STOP_11,Churchgate,07:06:55,07:01:55,06:54:06,06:54:06,25.0,35.0,Tuesday,2024-06-19,Humid
TRIP_188,MH-BUS-4,MUM_Route_E,STOP_18,Borivali,05:19:54,05:29:54,18:46:28,18:50:28,40.0,30.0,Saturday,2024-08-05,Partly Cloudy
TRIP_189,MH-BUS-5,MUM_Route_E,STOP_19,Worli,16:12:55,16:29:55,19:53:26,20:00:26,9.0,41.0,Saturday,2024-07-21,Humid
TRIP_190,MH-BUS-2,MUM_Route_D,STOP_5,Mulund,11:25:26,11:22:26,00:23:31,00:29:31,9.0,25.0,Thursday,2024-08-26,Monsoon
TRIP_191,MH-BUS-8,MUM_Route_E,STOP_17,CST,23:08:12,23:28:12,04:51:33,04:55:33,2.0,-2.0,Sunday,2024-06-08,Rainy
TRIP_192,MH-BUS-1,MUM_Route_D,STOP_8,Mulund,18:18:34,18:29:34,10:18:40,10:18:40,1.0,42.0,Friday,2024-08-18,Rainy
TRIP_193,MH-BUS-3,MUM_Route_A,STOP_5,Powai,06:50:33,07:02:33,01:58:20,02:08:20,38.0,23.0,Wednesday,2024-07-13,Humid
TRIP_194,MH-BUS-2,MUM_Route_D,STOP_11,Bandra,10:48:33,11:08:33,23:06:04,23:08:04,26.0,-2.0,Thursday,2024-07-27,Sunny
TRIP_195,MH-BUS-4,MUM_Route_E,STOP_16,Borivali,22:56:06,23:01:06,21:11:49,21:15:49,55.0,,Saturday,2024-07-09,Monsoon
TRIP_196,MH-BUS-9,MUM_Route_A,STOP_14,Bandra,05:22:53,05:23:53,19:53:38,20:00:38,35.0,13.0,Sunday,2024-08-13,Rainy
TRIP_197,MH-BUS-6,MUM_Route_D,STOP_5,CST,19:09:27,19:11:27,13:51:58,13:52:58,42.0,21.0,Thursday,2024-08-22,Sunny
TRIP_198,MH-BUS-4,MUM_Route_B,STOP_11,Belapur,19:17:37,19:19:37,05:29:44,05:32:44,26.0,22.0,Sunday,2024-07-25,
TRIP_199,MH-BUS-3,MUM_Route_A,STOP_3,Panvel,14:36:28,14:46:28,21:57:31,22:04:31,0.0,28.0,Friday,2024-08-23,Humid
TRIP_200,MH-BUS-6,MUM_Route_B,STOP_5,Ghatkopar,10:16:04,10:22:04,04:46:13,04:47:13,12.0,22.0,Saturday,2024-08-29,Rainy
TRIP_201,MH-BUS-7,MUM_Route_B,STOP_19,Churchgate,07:09:59,07:13:59,00:34:31,00:43:31,37.0,35.0,Tuesday,2024-08-12,Rainy
TRIP_202,MH-BUS-8,MUM_Route_E,STOP_1,Panvel,02:50:52,02:49:52,02:30:24,02:33:24,19.0,0.0,Saturday,2024-08-23,Rainy
TRIP_203,MH-BUS-9,MUM_Route_D,STOP_4,Mulund,22:16:25,22:18:25,14:51:41,14:53:41,21.0,21.0,Saturday,2024-08-06,Monsoon
TRIP_204,MH-BUS-7,MUM_Route_E,STOP_7,Ghatkopar,03:08:21,03:23:21,11:42:56,,36.0,0.0,Monday,2024-07-19,Partly Cloudy
TRIP_205,MH-BUS-4,MUM_Route_D,STOP_19,CST,18:43:09,18:56:09,02:15:57,,24.0,34.0,Tuesday,2024-06-10,Cloudy
TRIP_206,MH-BUS-10,MUM_Route_B,STOP_15,Mulund,23:26:02,23:46:02,03:21:37,03:29:37,24.0,40.0,Saturday,2024-07-22,Rainy
TRIP_207,MH-BUS-4,MUM_Route_E,STOP_3,Vashi,09:19:24,09:36:24,04:29:21,04:39:21,41.0,,Sunday,2024-06-27,Sunny
TRIP_208,MH-BUS-5,MUM_Route_A,STOP_15,Mulund,10:22:29,10:28:29,01:50:07,01:51:07,56.0,37.0,Tuesday,2024-07-11,Humid
TRIP_209,MH-BUS-3,MUM_Route_D,STOP_18,Kurla,11:14:44,11:31:44,16:25:55,16:29:55,10.0,29.0,Sunday,2024-06-04,Cloudy
TRIP_210,MH-BUS-5,MUM_Route_E,STOP_17,Lower Parel,15:45:29,16:03:29,14:11:30,14:17:30,,20.0,Wednesday,2024-07-18,Partly Cloudy
TRIP_211,MH-BUS-8,MUM_Route_D,STOP_6,Churchgate,17:14:16,17:12:16,18:47:59,18:51:59,4.0,21.0,Monday,2024-08-13,Sunny
TRIP_212,MH-BUS-9,MUM_Route_C,STOP_19,Churchgate,13:01:31,13:12:31,01:20:50,01:23:50,25.0,3.0,Sunday,2024-06-11,Partly Cloudy
TRIP_213,MH-BUS-2,MUM_Route_B,STOP_18,Bandra,04:25:59,04:24:59,14:10:13,14:13:13,14.0,35.0,Wednesday,2024-06-11,Monsoon
TRIP_214,MH-BUS-2,MUM_Route_B,STOP_9,Vashi,16:50:30,17:00:30,03:42:42,03:43:42,27.0,4.0,Saturday,2024-07-13,Sunny
TRIP_215,MH-BUS-6,MUM_Route_D,STOP_14,Mulund,02:30:42,02:44:42,19:09:46,,10.0,0.0,Wednesday,2024-08-24,Humid
TRIP_216,MH-BUS-5,MUM_Route_D,STOP_2,Kurla,14:16:48,14:11:48,21:06:18,21:10:18,40.0,25.0,Thursday,2024-06-27,Rainy
TRIP_217,MH-BUS-6,MUM_Route_E,STOP_6,Lower Parel,18:22:52,18:19:52,10:18:19,10:20:19,52.0,33.0,Saturday,2024-08-23,Monsoon
TRIP_218,MH-BUS-6,MUM_Route_D,STOP_8,Belapur,04:45:44,04:59:44,04:59:30,,15.0,38.0,Thursday,2024-06-23,Cloudy
TRIP_219,MH-BUS-2,MUM_Route_D,STOP_2,Borivali,18:06:21,18:22:21,22:06:37,22:07:37,21.0,14.0,Sunday,2024-07-29,Monsoon
TRIP_220,MH-BUS-2,MUM_Route_C,STOP_20,Mulund,04:44:13,05:00:13,06:38:52,06:41:52,39.0,13.0,Saturday,2024-06-20,Sunny
TRIP_221,MH-BUS-3,MUM_Route_A,STOP_5,Ghatkopar,10:43:16,10:43:16,16:31:48,16:32:48,7.0,25.0,Tuesday,2024-08-05,Humid
TRIP_222,MH-BUS-8,MUM_Route_C,STOP_10,Andheri,15:28:23,15:47:23,15:11:36,15:11:36,5.0,22.0,Wednesday,2024-06-15,partly cloudy
TRIP_223,MH-BUS-7,MUM_Route_C,STOP_14,Kharghar,22:04:07,22:04:07,06:01:54,06:04:54,23.0,30.0,Tuesday,2024-07-07,Partly Cloudy
TRIP_224,MH-BUS-4,MUM_Route_E,STOP_10,Lower Parel,06:17:50,06:15:50,06:28:26,06:36:26,34.0,15.0,Tuesday,2024-06-03,Rainy
TRIP_225,MH-BUS-3,MUM_Route_A,STOP_17,Panvel,14:50:40,15:01:40,12:29:27,12:33:27,0.0,0.0,Monday,2024-07-08,Monsoon
TRIP_226,MH-BUS-7,MUM_Route_B,STOP_4,Andheri,07:51:50,08:04:50,06:11:28,06:21:28,26.0,24.0,Sunday,2024-07-03,Cloudy
TRIP_227,MH-BUS-4,MUM_Route_C,STOP_5,Worli,12:28:52,12:23:52,21:20:19,21:22:19,0.0,6.0,Friday,2024-08-01,Monsoon
TRIP_228,MH-BUS-6,MUM_Route_B,STOP_2,Chembur,02:23:52,02:28:52,14:50:05,14:58:05,22.0,11.0,Sunday,2024-07-16,Rainy
TRIP_229,MH-BUS-6,MUM_Route_E,STOP_7,Mulund,15:26:36,15:24:36,19:44:54,19:48:54,,5.0,Thursday,2024-08-26,sunny
TRIP_230,MH-BUS-3,MUM_Route_A,STOP_17,Chembur,02:20:25,02:39:25,05:40:41,05:46:41,53.0,31.0,Wednesday,2024-08-07,Sunny
TRIP_231,MH-BUS-4,MUM_Route_C,STOP_16,Mulund,02:10:40,02:17:40,16:16:22,16:18:22,16.0,0.0,Wednesday,2024-06-28,Monsoon
TRIP_232,MH-BUS-4,MUM_Route_C,STOP_16,Belapur,05:50:15,05:46:15,04:27:33,04:32:33,34.0,29.0,Monday,2024-08-27,Cloudy
TRIP_233,MH-BUS-4,MUM_Route_C,STOP_18,Vashi,14:37:02,14:41:02,03:59:02,04:09:02,40.0,13.0,Monday,2024-07-10,Cloudy
TRIP_234,MH-BUS-10,MUM_Route_A,STOP_4,Churchgate,09:27:15,09:29:15,05:42:05,05:43:05,28.0,45.0,Friday,2024-07-24,Cloudy
TRIP_235,MH-BUS-6,MUM_Route_A,STOP_3,Borivali,16:28:30,16:39:30,09:22:04,09:27:04,54.0,55.0,Saturday,2024-06-10,Sunny
TRIP_236,MH-BUS-7,MUM_Route_D,STOP_12,Belapur,05:05:17,05:16:17,11:59:28,12:07:28,21.0,23.0,Friday,2024-07-11,Monsoon
TRIP_237,MH-BUS-4,MUM_Route_B,STOP_12,Colaba,14:02:00,14:13:00,05:14:24,05:19:24,12.0,0.0,Monday,2024-06-15,Partly Cloudy
TRIP_238,MH-BUS-10,MUM_Route_B,STOP_16,Kharghar,11:36:51,11:44:51,22:31:44,22:36:44,37.0,32.0,Tuesday,2024-07-12,Humid
TRIP_239,MH-BUS-6,MUM_Route_B,STOP_10,Vashi,14:47:26,14:49:26,02:02:26,02:07:26,28.0,24.0,Wednesday,2024-07-14,Rainy
TRIP_240,MH-BUS-3,MUM_Route_A,STOP_8,Thane,23:13:40,23:10:40,13:47:14,13:56:14,39.0,8.0,Wednesday,2024-08-03,Partly Cloudy
TRIP_241,MH-BUS-10,MUM_Route_B,STOP_11,Thane,17:06:45,17:12:45,22:45:18,22:45:18,48.0,31.0,Saturday,2024-06-23,Partly Cloudy
TRIP_242,MH-BUS-4,MUM_Route_D,STOP_7,Nerul,17:02:00,17:00:00,22:29:12,22:30:12,54.0,25.0,Saturday,2024-07-16,Partly Cloudy
TRIP_243,MH-BUS-9,MUM_Route_A,STOP_5,Mulund,23:29:46,23:38:46,12:54:30,12:58:30,18.0,33.0,Thursday,2024-08-02,Sunny
TRIP_244,MH-BUS-5,MUM_Route_E,STOP_5,Panvel,04:27:20,04:24:20,15:45:21,15:50:21,15.0,10.0,Tuesday,2024-06-02,
TRIP_245,MH-BUS-9,MUM_Route_E,STOP_5,CST,07:31:41,07:38:41,08:32:38,08:38:38,,,Saturday,2024-06-13,Humid
TRIP_246,MH-BUS-10,MUM_Route_A,STOP_1,Panvel,02:34:39,,19:28:31,19:36:31,7.0,34.0,Thursday,2024-07-19,Monsoon
TRIP_247,MH-BUS-10,MUM_Route_A,STOP_8,Lower Parel,00:14:30,001330,18:16:00,18:25:00,22.0,17.0,Wednesday,2024-06-23,Cloudy
TRIP_248,MH-BUS-4,MUM_Route_C,STOP_2,Thane,01:17:00,01:19:00,01:25:52,01:29:52,34.0,21.0,Wednesday,2024-06-17,Sunny
TRIP_249,MH-BUS-3,MUM_Route_C,STOP_1,Belapur,14:15:32,14:19:32,02:19:10,02:29:10,17.0,28.0,Tuesday,2024-06-02,Humid
TRIP_250,MH-BUS-2,MUM_Route_C,STOP_3,Lower Parel,14:24:32,14:32:32,17:18:26,17:25:26,19.0,,Wednesday,2024-07-22,Rainy
TRIP_251,MH-BUS-4,MUM_Route_A,STOP_4,Panvel,05:33:22,05:38:22,11:22:46,11:24:46,21.0,,Sunday,2024-08-19,Rainy
TRIP_252,MH-BUS-6,MUM_Route_A,STOP_19,Ghatkopar,02:39:25,024725,15:29:57,15:31:57,39.0,39.0,Tuesday,2024-06-29,Partly Cloudy
TRIP_253,MH-BUS-5,MUM_Route_C,STOP_5,Powai,09:24:47,09:31:47,00:58:42,01:03:42,40.0,15.0,Monday,2024-07-25,Partly Cloudy
TRIP_254,MH-BUS-3,MUM_Route_D,STOP_5,Powai,20:11:09,20:20:09,18:24:54,18:24:54,13.0,36.0,Thursday,2024-07-12,Rainy
TRIP_255,MH-BUS-1,MUM_Route_B,STOP_16,Ghatkopar,03:24:24,03:31:24,19:02:05,19:10:05,10.0,1.0,Monday,2024-06-13,
TRIP_256,MH-BUS-9,MUM_Route_A,STOP_6,Bandra,22:52:06,23:10:06,06:17:11,06:22:11,40.0,62.0,Sunday,2024-06-05,Partly Cloudy
TRIP_257,MH-BUS-2,MUM_Route_B,STOP_19,Chembur,09:26:19,09:24:19,13:14:35,13:19:35,31.0,34.0,Thursday,2024-08-07,Partly Cloudy
TRIP_258,MH-BUS-5,MUM_Route_A,STOP_19,Belapur,20:46:53,21:06:53,06:41:14,06:47:14,16.0,15.0,Tuesday,2024-08-24,Monsoon
TRIP_259,MH-BUS-4,MUM_Route_B,STOP_19,Panvel,22:04:29,22:23:29,08:39:56,08:45:56,18.0,,Wednesday,2024-06-17,Cloudy
TRIP_260,MH-BUS-9,MUM_Route_B,STOP_18,Lower Parel,00:14:45,00:34:45,06:16:15,06:25:15,0.0,56.0,Tuesday,2024-08-12,Sunny
TRIP_261,MH-BUS-3,MUM_Route_E,STOP_17,Churchgate,00:39:46,00:55:46,00:03:18,00:03:18,5.0,23.0,Saturday,2024-06-04,Humid
TRIP_262,MH-BUS-4,MUM_Route_C,STOP_8,Ghatkopar,05:31:43,05:41:43,02:30:28,02:35:28,46.0,,Sunday,2024-08-13,Monsoon
TRIP_263,MH-BUS-5,MUM_Route_C,STOP_3,Churchgate,09:43:25,10:00:25,23:07:33,23:07:33,5.0,4.0,Monday,2024-08-09,Sunny
TRIP_264,MH-BUS-1,MUM_Route_D,STOP_17,Colaba,05:17:07,,06:54:08,07:02:08,40.0,10.0,Sunday,2024-08-25,Sunny
TRIP_265,MH-BUS-5,MUM_Route_C,STOP_19,Belapur,20:00:37,20:20:37,20:28:51,20:38:51,30.0,16.0,Tuesday,2024-08-29,
TRIP_266,MH-BUS-8,MUM_Route_E,STOP_9,Nerul,13:36:58,13:37:58,03:45:44,03:52:44,17.0,24.0,Friday,2024-07-18,Sunny
TRIP_267,MH-BUS-2,MUM_Route_E,STOP_13,Panvel,14:12:26,14:31:26,01:54:15,015415,3.0,18.0,Monday,2024-08-01,Humid
TRIP_268,MH-BUS-9,MUM_Route_A,STOP_1,Borivali,02:37:31,,04:37:34,04:44:34,41.0,53.0,Thursday,2024-06-24,Partly Cloudy
TRIP_269,MH-BUS-2,MUM_Route_E,STOP_7,Belapur,03:56:39,04:11:39,16:37:56,16:47:56,61.0,26.0,Saturday,2024-08-08,Monsoon
TRIP_270,MH-BUS-4,MUM_Route_D,STOP_17,Worli,09:43:42,095642,23:26:06,23:35:06,31.0,21.0,Wednesday,2024-07-16,Monsoon
TRIP_271,MH-BUS-4,MUM_Route_A,STOP_12,Colaba,00:47:47,00:57:47,23:55:32,23:57:32,,3.0,Thursday,2024-06-10,Cloudy
TRIP_272,MH-BUS-5,MUM_Route_B,STOP_13,Mulund,04:51:47,05:03:47,03:41:22,03:49:22,42.0,20.0,Saturday,2024-07-06,Partly Cloudy
TRIP_273,MH-BUS-1,MUM_Route_E,STOP_16,Ghatkopar,18:22:02,18:30:02,05:38:24,05:43:24,48.0,0.0,Saturday,2024-06-13,Humid
TRIP_274,MH-BUS-3,MUM_Route_B,STOP_6,Ghatkopar,22:21:40,22:20:40,01:25:03,01:27:03,9.0,19.0,Saturday,2024-08-28,Humid
TRIP_275,MH-BUS-3,MUM_Route_A,STOP_17,Kurla,11:08:40,11:03:40,00:29:33,00:34:33,28.0,16.0,Monday,2024-07-16,Rainy
TRIP_276,MH-BUS-6,MUM_Route_D,STOP_4,CST,18:16:17,18:17:17,09:17:27,09:23:27,23.0,2.0,Friday,2024-08-26,Partly Cloudy
TRIP_277,MH-BUS-4,MUM_Route_D,STOP_19,Nerul,12:40:35,12:59:35,10:48:43,10:49:43,24.0,45.0,Wednesday,2024-06-20,Humid
TRIP_278,MH-BUS-7,MUM_Route_D,STOP_17,Mulund,03:06:27,03:25:27,11:08:21,,28.0,-2.0,Wednesday,2024-06-27,Partly Cloudy
TRIP_279,MH-BUS-5,MUM_Route_D,STOP_11,Belapur,21:13:32,21:16:32,20:29:08,20:31:08,6.0,10.0,Saturday,2024-08-01,rainy
TRIP_280,MH-BUS-5,MUM_Route_B,STOP_12,Chembur,20:31:05,,00:34:39,00:42:39,5.0,,Sunday,2024-07-09,Sunny
TRIP_281,MH-BUS-5,MUM_Route_A,STOP_16,Lower Parel,00:32:47,00:37:47,00:56:51,00:59:51,19.0,20.0,Sunday,2024-07-17,Monsoon
TRIP_282,MH-BUS-7,MUM_Route_A,STOP_2,Churchgate,12:52:46,13:09:46,03:45:18,03:51:18,43.0,34.0,Saturday,2024-07-10,Sunny
TRIP_283,MH-BUS-4,MUM_Route_C,STOP_6,Chembur,08:00:51,08:20:51,20:16:07,20:24:07,38.0,0.0,Saturday,2024-06-27,Humid
TRIP_284,MH-BUS-4,MUM_Route_E,STOP_15,Nerul,07:30:30,07:36:30,20:55:36,20:56:36,32.0,15.0,Saturday,2024-08-23,Rainy
TRIP_285,MH-BUS-6,MUM_Route_D,STOP_20,Bandra,23:46:24,23:53:24,21:11:56,21:18:56,27.0,0.0,Tuesday,2024-08-20,Monsoon
TRIP_286,MH-BUS-8,MUM_Route_B,STOP_1,Panvel,03:07:32,03:17:32,12:47:23,12:55:23,44.0,25.0,Saturday,2024-06-15,Partly Cloudy
TRIP_287,MH-BUS-4,MUM_Route_D,STOP_7,Powai,15:27:42,15:33:42,01:21:33,01:26:33,36.0,18.0,Friday,2024-08-10,Humid
TRIP_288,MH-BUS-3,MUM_Route_A,STOP_9,Nerul,15:54:00,16:04:00,22:22:08,22:23:08,28.0,18.0,Wednesday,2024-06-24,Rainy
TRIP_289,MH-BUS-9,MUM_Route_C,STOP_3,Lower Parel,21:10:07,21:28:07,01:44:14,01:50:14,19.0,21.0,Thursday,2024-06-28,Cloudy
TRIP_290,MH-BUS-4,MUM_Route_A,STOP_5,Panvel,19:15:22,19:29:22,21:30:30,21:39:30,40.0,19.0,Monday,2024-07-21,Partly Cloudy
TRIP_291,MH-BUS-8,MUM_Route_E,STOP_12,Nerul,02:10:20,02:10:20,15:00:07,15:04:07,,36.0,Saturday,2024-07-25,Sunny
TRIP_292,MH-BUS-7,MUM_Route_D,STOP_15,Panvel,07:35:17,07:37:17,18:57:32,19:04:32,28.0,0.0,Friday,2024-06-02,Cloudy
TRIP_293,MH-BUS-3,MUM_Route_C,STOP_1,Worli,01:41:10,01:44:10,20:14:16,20:22:16,6.0,36.0,Tuesday,2024-06-17,Partly Cloudy
TRIP_294,MH-BUS-6,MUM_Route_E,STOP_6,Dadar,05:01:22,05:08:22,05:41:45,05:48:45,38.0,3.0,Saturday,2024-08-15,Cloudy
TRIP_295,MH-BUS-9,MUM_Route_B,STOP_15,Vashi,10:37:12,10:49:12,04:43:19,04:50:19,37.0,36.0,Saturday,2024-07-20,Sunny
TRIP_296,MH-BUS-10,MUM_Route_C,STOP_15,Nerul,09:20:48,09:30:48,14:35:51,14:45:51,29.0,10.0,Friday,2024-07-10,Rainy
TRIP_297,MH-BUS-9,MUM_Route_E,STOP_5,Thane,22:27:27,22:38:27,09:04:03,09:09:03,41.0,23.0,Wednesday,2024-06-07,Monsoon
TRIP_298,MH-BUS-9,MUM_Route_A,STOP_10,Nerul,17:16:31,17:12:31,14:53:40,14:53:40,28.0,13.0,Friday,2024-08-10,Partly Cloudy
TRIP_299,MH-BUS-7,MUM_Route_C,STOP_19,Colaba,19:06:42,19:07:42,22:10:00,22:14:00,38.0,1.0,Monday,2024-07-11,Monsoon
TRIP_300,MH-BUS-6,MUM_Route_E,STOP_16,Nerul,16:16:30,16:22:30,03:22:42,03:22:42,10.0,16.0,Sunday,2024-08-20,Monsoon
TRIP_301,MH-BUS-7,MUM_Route_C,STOP_15,Andheri,22:42:57,,09:04:24,09:10:24,26.0,33.0,Wednesday,2024-08-09,Monsoon
TRIP_302,MH-BUS-5,MUM_Route_D,STOP_3,Andheri,20:59:55,21:17:55,14:52:21,15:02:21,37.0,0.0,Monday,2024-08-09,Rainy
TRIP_303,MH-BUS-6,MUM_Route_E,STOP_2,Mulund,20:21:43,20:31:43,14:36:02,14:44:02,0.0,16.0,Sunday,2024-06-03,Rainy
TRIP_304,MH-BUS-4,MUM_Route_B,STOP_18,Thane,02:18:55,02:37:55,11:22:30,11:30:30,18.0,14.0,Tuesday,2024-07-22,Rainy
TRIP_305,MH-BUS-7,MUM_Route_D,STOP_18,Powai,13:20:27,13:19:27,13:56:56,14:01:56,11.0,,Wednesday,2024-07-20,Partly Cloudy
TRIP_306,MH-BUS-9,MUM_Route_B,STOP_16,Ghatkopar,12:25:20,12:37:20,10:42:18,10:52:18,28.0,43.0,Sunday,2024-06-03,Cloudy
TRIP_307,MH-BUS-8,MUM_Route_E,STOP_14,Lower Parel,13:44:18,13:41:18,06:22:48,06:32:48,16.0,40.0,Thursday,2024-06-05,Rainy
TRIP_308,MH-BUS-7,MUM_Route_C,STOP_4,Churchgate,23:36:47,23:51:47,03:07:17,03:13:17,26.0,18.0,Wednesday,2024-08-18,
TRIP_309,MH-BUS-7,MUM_Route_B,STOP_14,CST,02:30:17,02:27:17AM,18:40:24,18:49:24,20.0,51.0,Wednesday,2024-06-03,Rainy
TRIP_310,MH-BUS-4,MUM_Route_A,STOP_5,Vashi,06:07:10,06:18:10,18:17:17,18:25:17,42.0,12.0,Sunday,2024-06-13,Humid
TRIP_311,MH-BUS-2,MUM_Route_A,STOP_1,Thane,01:37:57,,02:12:06,02:21:06,16.0,8.0,Tuesday,2024-06-28,Humid
TRIP_312,MH-BUS-1,MUM_Route_A,STOP_5,Lower Parel,00:56:06,01:08:06,00:23:36,00:23:36,48.0,-2.0,Thursday,2024-07-05,Rainy
TRIP_313,MH-BUS-9,MUM_Route_C,STOP_2,Mulund,09:31:01,09:27:01,00:20:23,00:22:23,46.0,23.0,Sunday,2024-07-15,Cloudy
TRIP_314,MH-BUS-5,MUM_Route_B,STOP_7,CST,20:52:53,21:10:53,09:17:46,09:18:46,10.0,13.0,Monday,2024-08-22,Humid
TRIP_315,MH-BUS-2,MUM_Route_C,STOP_11,Kurla,12:01:00,12:06:00,06:55:54,07:01:54,18.0,21.0,Thursday,2024-08-30,Rainy
TRIP_316,MH-BUS-9,MUM_Route_C,STOP_20,Dadar,11:03:06,11:16:06,07:13:03,07:16:03,12.0,6.0,Saturday,2024-08-15,Rainy
TRIP_317,MH-BUS-6,MUM_Route_B,STOP_1,Lower Parel,03:45:47,04:03:47,01:02:59,01:08:59,,43.0,Sunday,2024-06-23,Cloudy
TRIP_318,MH-BUS-1,MUM_Route_A,STOP_4,Andheri,13:34:18,13:34:18,15:07:01,15:08:01,43.0,15.0,Friday,2024-08-03,Cloudy
TRIP_319,MH-BUS-4,MUM_Route_A,STOP_11,Thane,22:37:48,22:43:48,13:36:40,13:37:40,35.0,8.0,Monday,2024-07-03,Rainy
TRIP_320,MH-BUS-4,MUM_Route_C,STOP_15,Chembur,18:58:27,,03:25:11,03:34:11AM,11.0,,Friday,2024-07-17,Humid
TRIP_321,MH-BUS-7,MUM_Route_D,STOP_19,Kurla,14:17:27,14:37:27,19:23:19,19:32:19,18.0,43.0,Wednesday,2024-06-26,Cloudy
TRIP_322,MH-BUS-8,MUM_Route_A,STOP_13,Worli,14:07:50,14:15:50,18:44:30,18:53:30,7.0,3.0,Tuesday,2024-06-26,
TRIP_323,MH-BUS-7,MUM_Route_C,STOP_13,Mulund,12:02:26,12:12:26,03:56:46,03:58:46,20.0,26.0,Wednesday,2024-08-17,Rainy
TRIP_324,MH-BUS-4,MUM_Route_E,STOP_11,Mulund,13:11:39,,18:19:16,18:20:16,43.0,17.0,Friday,2024-06-08,Rainy
TRIP_325,MH-BUS-10,MUM_Route_D,STOP_2,Andheri,13:49:10,13:44:10,17:33:20,17:42:20,26.0,0.0,Thursday,2024-06-21,Humid
TRIP_326,MH-BUS-3,MUM_Route_E,STOP_6,Ghatkopar,16:29:19,16:28:19,00:02:58,00:02:58,1.0,27.0,Tuesday,2024-06-16,Cloudy
TRIP_327,MH-BUS-5,MUM_Route_B,STOP_6,Colaba,21:08:12,21:17:12,06:39:00,,10.0,,Sunday,2024-06-02,
TRIP_328,MH-BUS-2,MUM_Route_C,STOP_19,Kharghar,19:22:19,19:26:19,00:12:11,00:19:11,41.0,6.0,Wednesday,2024-07-08,Rainy
TRIP_329,MH-BUS-9,MUM_Route_D,STOP_7,Kharghar,22:35:56,22:48:56,01:18:21,01:28:21,4.0,15.0,Sunday,2024-08-30,Partly Cloudy
TRIP_330,MH-BUS-8,MUM_Route_A,STOP_10,Churchgate,21:54:02,22:07:02,11:03:44,11:13:44,23.0,20.0,Thursday,2024-07-13,Partly Cloudy
TRIP_331,MH-BUS-2,MUM_Route_D,STOP_16,Lower Parel,07:34:54,07:32:54,16:55:20,16:59:20,18.0,26.0,Thursday,2024-06-26,Humid
TRIP_332,MH-BUS-10,MUM_Route_E,STOP_9,Belapur,05:15:19,05:10:19,01:13:24,01:22:24,23.0,21.0,Sunday,2024-06-09,Cloudy
TRIP_333,MH-BUS-9,MUM_Route_C,STOP_19,Bandra,00:36:07,00:36:07,12:55:27,13:00:27,18.0,47.0,Thursday,2024-08-11,Monsoon
TRIP_334,MH-BUS-4,MUM_Route_E,STOP_5,Borivali,22:34:37,22:48:37,11:39:00,11:40:00,23.0,12.0,Tuesday,2024-07-26,Partly Cloudy
TRIP_335,MH-BUS-9,MUM_Route_D,STOP_1,Thane,18:21:26,18:26:26,22:27:50,22:30:50,36.0,37.0,Friday,2024-06-16,Monsoon
TRIP_336,MH-BUS-6,MUM_Route_A,STOP_9,Borivali,06:28:49,06:35:49,01:02:47,01:02:47,24.0,8.0,Saturday,2024-07-07,Rainy
TRIP_337,MH-BUS-4,MUM_Route_C,STOP_2,Belapur,11:56:33,11:53:33,01:40:46,01:43:46,7.0,20.0,Tuesday,2024-07-29,Cloudy
TRIP_338,MH-BUS-10,MUM_Route_C,STOP_15,Dadar,14:53:36,,07:49:06,07:57:06,22.0,8.0,Saturday,2024-08-10,Cloudy
TRIP_339,MH-BUS-1,MUM_Route_D,STOP_17,Kurla,02:18:30,02:19:30,23:02:06,23:10:06,4.0,40.0,Saturday,2024-08-02,Humid
TRIP_340,MH-BUS-4,MUM_Route_A,STOP_5,Dadar,10:17:47,10:27:47,07:20:05,07:24:05,13.0,23.0,Wednesday,2024-08-31,Monsoon
TRIP_341,MH-BUS-1,MUM_Route_D,STOP_12,Nerul,00:54:41,01:12:41,01:52:16,01:57:16,0.0,22.0,Monday,2024-06-29,Rainy
TRIP_342,MH-BUS-6,MUM_Route_D,STOP_2,Belapur,08:47:33,08:59:33,10:22:36,10:25:36,32.0,0.0,Saturday,2024-06-13,Rainy
TRIP_343,MH-BUS-3,MUM_Route_E,STOP_16,Thane,11:48:58,12:03:58PM,22:08:56,22:18:56,17.0,11.0,Sunday,2024-07-12,Humid
TRIP_344,MH-BUS-3,MUM_Route_B,STOP_9,Vashi,14:45:34,14:53:34,16:45:15,16:55:15,25.0,0.0,Monday,2024-06-09,Cloudy
TRIP_345,MH-BUS-3,MUM_Route_C,STOP_10,Worli,02:05:37,02:14:37,05:10:39,05:11:39,39.0,37.0,Sunday,2024-07-11,Monsoon
TRIP_346,MH-BUS-9,MUM_Route_C,STOP_15,Panvel,01:13:00,01:30:00,05:52:15,05:57:15,-5.0,11.0,Sunday,2024-08-05,Rainy
TRIP_347,MH-BUS-8,MUM_Route_D,STOP_10,Worli,02:44:21,02:50:21,17:52:47,17:53:47,11.0,39.0,Saturday,2024-07-30,Rainy
TRIP_348,MH-BUS-2,MUM_Route_C,STOP_3,Lower Parel,00:24:24,00:44:24,12:25:07,12:28:07,28.0,18.0,Saturday,2024-06-26,Cloudy
TRIP_349,MH-BUS-10,MUM_Route_E,STOP_9,Worli,11:58:31,12:07:31,13:43:09,13:53:09,0.0,20.0,Friday,2024-06-29,Cloudy
TRIP_350,MH-BUS-8,MUM_Route_D,STOP_5,Borivali,07:11:05,07:13:05,13:39:56,13:45:56,31.0,26.0,Saturday,2024-07-19,Monsoon
TRIP_351,MH-BUS-7,MUM_Route_B,STOP_9,Worli,16:13:51,16:33:51,15:09:35,15:19:35,34.0,0.0,Friday,2024-08-24,Monsoon
TRIP_352,MH-BUS-6,MUM_Route_D,STOP_16,Dadar,22:47:11,22:49:11,10:17:25,10:19:25,26.0,23.0,Friday,2024-06-15,Rainy
TRIP_353,MH-BUS-4,MUM_Route_A,STOP_8,Thane,12:32:06,12:47:06,06:54:23,07:01:23,31.0,13.0,Thursday,2024-08-02,Sunny
TRIP_354,MH-BUS-7,MUM_Route_D,STOP_16,Colaba,23:53:51,00:07:51,18:03:42,18:04:42,42.0,19.0,Tuesday,2024-07-11,Cloudy
TRIP_355,MH-BUS-2,MUM_Route_C,STOP_13,Bandra,06:29:19,06:46:19,21:57:20,22:06:20,25.0,46.0,Tuesday,2024-06-17,Partly Cloudy
TRIP_356,MH-BUS-8,MUM_Route_C,STOP_12,CST,20:50:57,08:51:57PM,19:06:45,19:08:45,9.0,23.0,Sunday,2024-07-04,Partly Cloudy
TRIP_357,MH-BUS-3,MUM_Route_E,STOP_11,Colaba,22:02:06,22:12:06,04:59:18,05:01:18,26.0,7.0,Friday,2024-06-20,Partly Cloudy
TRIP_358,MH-BUS-1,MUM_Route_C,STOP_7,CST,04:44:48,04:39:48,15:28:55,15:29:55,37.0,21.0,Thursday,2024-08-13,Cloudy
TRIP_359,MH-BUS-3,MUM_Route_B,STOP_19,Panvel,01:46:46,01:54:46,18:27:52,18:29:52,44.0,24.0,Tuesday,2024-07-22,Monsoon
TRIP_360,MH-BUS-3,MUM_Route_E,STOP_7,Vashi,21:00:16,21:18:16,08:13:38,08:16:38,24.0,30.0,Friday,2024-08-07,Rainy
TRIP_361,MH-BUS-8,MUM_Route_E,STOP_19,Nerul,20:10:09,20:18:09,04:15:03,04:18:03,32.0,19.0,Wednesday,2024-07-18,Rainy
TRIP_362,MH-BUS-10,MUM_Route_C,STOP_9,Chembur,16:41:51,,06:26:12,06:27:12,19.0,48.0,Wednesday,2024-06-19,Cloudy
TRIP_363,MH-BUS-5,MUM_Route_E,STOP_8,Thane,00:30:46,00:41:46,13:10:31,13:18:31,35.0,,Monday,2024-06-25,Rainy
TRIP_364,MH-BUS-7,MUM_Route_A,STOP_15,Worli,03:17:12,03:29:12,08:23:43,08:28:43,63.0,7.0,Thursday,2024-06-26,Monsoon
TRIP_365,MH-BUS-9,MUM_Route_D,STOP_12,Thane,23:26:20,23:28:20,11:20:54,11:26:54,2.0,0.0,Thursday,2024-06-22,Partly Cloudy
TRIP_366,MH-BUS-7,MUM_Route_C,STOP_15,Bandra,19:20:36,19:33:36,07:10:56,07:18:56,12.0,10.0,Friday,2024-06-27,Cloudy
TRIP_367,MH-BUS-6,MUM_Route_E,STOP_11,Churchgate,14:31:52,14:31:52,20:45:32,20:52:32,8.0,,Monday,2024-08-02,Monsoon
TRIP_368,MH-BUS-4,MUM_Route_E,STOP_11,Churchgate,11:59:12,12:06:12,09:13:03,09:18:03,38.0,3.0,Friday,2024-08-12,Monsoon
TRIP_369,MH-BUS-8,MUM_Route_C,STOP_11,Andheri,11:39:02,11:50:02,03:19:26,03:28:26,29.0,10.0,Thursday,2024-08-23,
TRIP_370,MH-BUS-1,MUM_Route_E,STOP_7,Belapur,14:45:59,15:03:59,22:29:00,22:36:00,,31.0,Sunday,2024-08-27,Rainy
TRIP_371,MH-BUS-6,MUM_Route_E,STOP_4,Thane,14:00:07,14:20:07,20:07:15,20:08:15,-5.0,19.0,Tuesday,2024-07-09,Rainy
TRIP_372,MH-BUS-2,MUM_Route_B,STOP_17,Dadar,16:09:39,16:18:39,15:54:37,15:55:37,23.0,15.0,Sunday,2024-07-18,monsoon
TRIP_373,MH-BUS-5,MUM_Route_D,STOP_12,Churchgate,01:20:31,01:21:31,12:00:22,12:03:22,35.0,0.0,Friday,2024-08-26,Rainy
TRIP_374,MH-BUS-6,MUM_Route_A,STOP_14,Chembur,17:26:43,17:29:43,00:40:11,00:43:11,10.0,27.0,Friday,2024-08-15,Humid
TRIP_375,MH-BUS-3,MUM_Route_B,STOP_5,Nerul,22:32:39,22:41:39,11:11:32,11:14:32,16.0,28.0,Saturday,2024-06-15,Cloudy
TRIP_376,MH-BUS-7,MUM_Route_A,STOP_7,Churchgate,16:04:49,16:02:49,19:43:02,19:53:02,59.0,,Friday,2024-08-03,Sunny
TRIP_377,MH-BUS-7,MUM_Route_E,STOP_1,Panvel,05:35:14,05:44:14,22:55:34,22:57:34,38.0,13.0,Friday,2024-08-07,Sunny
TRIP_378,MH-BUS-1,MUM_Route_E,STOP_6,Powai,08:42:56,08:49:56,15:16:57,15:24:57,4.0,23.0,Saturday,2024-07-30,Partly Cloudy
TRIP_379,MH-BUS-3,MUM_Route_B,STOP_7,Mulund,03:03:44,03:14:44,14:52:04,14:53:04,38.0,19.0,Sunday,2024-06-05,Humid
TRIP_380,MH-BUS-3,MUM_Route_E,STOP_13,Chembur,21:49:13,21:44:13,04:36:32,04:46:32,36.0,23.0,Sunday,2024-07-19,Monsoon
TRIP_381,MH-BUS-1,MUM_Route_B,STOP_20,Borivali,12:47:56,12:53:56,04:54:14,04:57:14,24.0,0.0,Tuesday,2024-06-18,Sunny
TRIP_382,MH-BUS-3,MUM_Route_E,STOP_15,Chembur,18:18:51,18:38:51,08:23:23,08:25:23,21.0,2.0,Monday,2024-07-04,
TRIP_383,MH-BUS-5,MUM_Route_C,STOP_5,Borivali,23:45:19,23:46:19,20:07:09,20:15:09,21.0,5.0,Friday,2024-08-06,Partly Cloudy
TRIP_384,MH-BUS-10,MUM_Route_B,STOP_9,Kurla,23:28:37,23:38:37,11:05:57,11:11:57,22.0,0.0,Tuesday,2024-08-01,Partly Cloudy
TRIP_385,MH-BUS-2,MUM_Route_B,STOP_20,Worli,02:16:54,02:27:54,17:28:27,17:38:27,22.0,,Monday,2024-06-29,Monsoon
TRIP_386,MH-BUS-8,MUM_Route_C,STOP_13,Dadar,14:11:16,14:27:16,10:00:19,10:10:19,43.0,40.0,Sunday,2024-07-11,Monsoon
TRIP_387,MH-BUS-6,MUM_Route_E,STOP_7,Worli,08:20:44,,02:14:06,02:18:06AM,1.0,0.0,Thursday,2024-07-21,Monsoon
TRIP_388,MH-BUS-3,MUM_Route_C,STOP_18,Churchgate,23:14:12,23:24:12,05:02:24,05:11:24,28.0,26.0,Tuesday,2024-07-16,Cloudy
TRIP_389,MH-BUS-4,MUM_Route_A,STOP_5,Lower Parel,06:29:01,06:48:01,21:25:39,21:29:39,36.0,,Tuesday,2024-06-12,Monsoon
TRIP_390,MH-BUS-10,MUM_Route_C,STOP_3,Mulund,01:18:51,01:19:51,12:04:21,12:04:21,24.0,-2.0,Saturday,2024-06-05,Cloudy
TRIP_391,MH-BUS-9,MUM_Route_D,STOP_9,Borivali,23:41:48,23:46:48,16:43:15,16:43:15,32.0,3.0,Thursday,2024-06-15,Cloudy
TRIP_392,MH-BUS-10,MUM_Route_A,STOP_15,Colaba,08:22:23,08:26:23,05:57:45,06:06:45AM,,10.0,Sunday,2024-06-26,Rainy
TRIP_393,MH-BUS-6,MUM_Route_C,STOP_18,Worli,07:21:15,07:39:15AM,16:41:51,16:42:51,15.0,8.0,Sunday,2024-07-29,Monsoon
TRIP_394,MH-BUS-9,MUM_Route_A,STOP_12,Kharghar,19:51:35,20:10:35,02:02:58,02:10:58,25.0,19.0,Tuesday,2024-06-08,Humid
TRIP_395,MH-BUS-10,MUM_Route_D,STOP_11,Kurla,11:27:42,11:36:42,04:19:07,04:23:07,27.0,28.0,Thursday,2024-07-27,Sunny
TRIP_396,MH-BUS-8,MUM_Route_D,STOP_12,Powai,13:57:54,14:04:54,22:04:49,22:04:49,13.0,13.0,Sunday,2024-08-18,Humid
TRIP_397,MH-BUS-2,MUM_Route_C,STOP_4,Nerul,06:32:21,06:51:21,02:11:33,02:15:33,24.0,36.0,Saturday,2024-08-08,Monsoon
TRIP_398,MH-BUS-5,MUM_Route_D,STOP_4,Colaba,22:54:46,23:00:46,13:34:10,13:41:10,,10.0,Tuesday,2024-08-23,Humid
TRIP_399,MH-BUS-2,MUM_Route_B,STOP_18,Churchgate,13:01:49,12:56:49,07:02:40,07:07:40,12.0,42.0,Wednesday,2024-07-26,Cloudy
TRIP_400,MH-BUS-10,MUM_Route_C,STOP_17,Belapur,05:41:32,05:38:32,13:51:57,13:56:57,,17.0,Saturday,2024-07-05,Cloudy
TRIP_401,MH-BUS-10,MUM_Route_D,STOP_6,Belapur,01:21:21,01:22:21,21:03:32,21:07:32,46.0,43.0,Thursday,2024-07-21,Rainy
TRIP_402,MH-BUS-10,MUM_Route_D,STOP_17,Borivali,03:55:10,03:53:10,17:45:01,17:54:01,32.0,,Friday,2024-06-21,Rainy
TRIP_403,MH-BUS-3,MUM_Route_E,STOP_1,Mulund,11:37:56,11:50:56,10:40:51,10:48:51,8.0,0.0,Thursday,2024-06-06,Cloudy
TRIP_404,MH-BUS-4,MUM_Route_E,STOP_10,Powai,22:12:46,22:18:46,20:47:19,20:53:19,44.0,16.0,Friday,2024-07-31,Cloudy
TRIP_405,MH-BUS-1,MUM_Route_E,STOP_13,Borivali,23:46:24,23:57:24,23:53:16,00:01:16,26.0,30.0,Saturday,2024-07-19,Cloudy
TRIP_406,MH-BUS-2,MUM_Route_E,STOP_15,Borivali,09:14:10,09:31:10,06:47:25,06:52:25,16.0,41.0,Saturday,2024-06-04,Monsoon
TRIP_407,MH-BUS-7,MUM_Route_A,STOP_20,Dadar,11:54:58,,15:04:24,15:08:24,0.0,17.0,Thursday,2024-06-11,Rainy
TRIP_408,MH-BUS-2,MUM_Route_E,STOP_20,Dadar,16:37:55,16:37:55,13:03:22,13:07:22,39.0,14.0,Thursday,2024-07-15,Monsoon
TRIP_409,MH-BUS-10,MUM_Route_C,STOP_18,Borivali,20:11:01,20:26:01,16:59:20,17:07:20,27.0,16.0,Friday,2024-08-21,Rainy
TRIP_410,MH-BUS-4,MUM_Route_B,STOP_18,Ghatkopar,14:29:40,14:42:40,23:33:49,23:36:49,0.0,13.0,Thursday,2024-06-07,Cloudy
TRIP_411,MH-BUS-4,MUM_Route_B,STOP_5,Churchgate,20:02:04,20:08:04,16:08:10,16:14:10,13.0,25.0,Thursday,2024-06-20,Sunny
TRIP_412,MH-BUS-3,MUM_Route_B,STOP_16,Churchgate,19:25:12,07:34:12PM,17:17:52,17:26:52,37.0,4.0,Friday,2024-07-25,Rainy
TRIP_413,MH-BUS-3,MUM_Route_D,STOP_1,Mulund,07:34:47,07:47:47,16:58:46,16:59:46,22.0,7.0,Saturday,2024-08-07,Partly Cloudy
TRIP_414,MH-BUS-3,MUM_Route_A,STOP_2,Kurla,15:56:36,16:12:36,10:23:12,10:26:12,24.0,18.0,Wednesday,2024-06-22,Cloudy
TRIP_415,MH-BUS-4,MUM_Route_A,STOP_4,Andheri,01:02:45,01:20:45,05:04:27,050927,37.0,4.0,Saturday,2024-07-04,Partly Cloudy
TRIP_416,MH-BUS-8,MUM_Route_E,STOP_13,Thane,10:19:28,10:30:28,19:55:31,19:57:31,18.0,40.0,Tuesday,2024-08-01,Cloudy
TRIP_417,MH-BUS-10,MUM_Route_A,STOP_11,Ghatkopar,20:01:10,20:21:10,11:35:29,11:44:29,7.0,50.0,Tuesday,2024-07-17,Rainy
TRIP_418,MH-BUS-7,MUM_Route_E,STOP_2,Kharghar,08:44:27,08:42:27,15:43:57,15:44:57,,34.0,Sunday,2024-07-10,Sunny
TRIP_419,MH-BUS-6,MUM_Route_C,STOP_13,Panvel,05:59:36,06:05:36,21:41:17,21:47:17,0.0,29.0,Saturday,2024-08-27,Humid
TRIP_420,MH-BUS-9,MUM_Route_D,STOP_18,Borivali,19:40:43,,03:05:08,03:05:08,16.0,44.0,Sunday,2024-07-17,Sunny
TRIP_421,MH-BUS-10,MUM_Route_C,STOP_8,Andheri,03:42:34,03:58:34,23:03:08,23:03:08,45.0,16.0,Thursday,2024-06-06,Rainy
TRIP_422,MH-BUS-9,MUM_Route_E,STOP_19,Ghatkopar,05:13:05,05:13:05,11:23:36,11:24:36,20.0,36.0,Friday,2024-06-09,Humid
TRIP_423,MH-BUS-1,MUM_Route_C,STOP_6,Bandra,12:48:47,12:48:47,18:59:33,19:02:33,-5.0,12.0,Thursday,2024-07-06,Sunny
TRIP_424,MH-BUS-10,MUM_Route_B,STOP_19,Dadar,01:07:30,01:21:30,08:16:15,08:17:15,27.0,12.0,Monday,2024-06-17,Cloudy
TRIP_425,MH-BUS-1,MUM_Route_D,STOP_6,Powai,00:36:14,00:54:14,08:22:26,,3.0,0.0,Wednesday,2024-07-06,Humid
TRIP_426,MH-BUS-2,MUM_Route_A,STOP_16,Thane,01:36:16,01:46:16AM,16:31:51,16:34:51,20.0,27.0,Tuesday,2024-08-26,Rainy
TRIP_427,MH-BUS-9,MUM_Route_B,STOP_17,Lower Parel,22:00:18,22:17:18,20:28:28,20:37:28,43.0,12.0,Tuesday,2024-08-20,
TRIP_428,MH-BUS-2,MUM_Route_C,STOP_17,Worli,09:10:58,09:08:58,04:45:56,04:45:56,4.0,30.0,Monday,2024-08-14,Monsoon
TRIP_429,MH-BUS-10,MUM_Route_C,STOP_3,Nerul,03:14:47,03:31:47,23:14:55,232055,29.0,48.0,Wednesday,2024-07-28,Monsoon
TRIP_430,MH-BUS-6,MUM_Route_D,STOP_12,Lower Parel,09:06:37,09:26:37,17:59:52,,19.0,26.0,Friday,2024-07-06,Partly Cloudy
TRIP_431,MH-BUS-6,MUM_Route_A,STOP_7,Churchgate,18:39:51,18:35:51,12:20:51,12:28:51,47.0,2.0,Friday,2024-08-09,Monsoon
TRIP_432,MH-BUS-6,MUM_Route_E,STOP_19,Kharghar,07:53:15,08:03:15,13:20:36,13:21:36,,23.0,Monday,2024-08-23,Humid
TRIP_433,MH-BUS-1,MUM_Route_D,STOP_12,Borivali,16:39:09,16:56:09,08:01:00,08:02:00,21.0,33.0,Thursday,2024-06-28,Partly Cloudy
TRIP_434,MH-BUS-1,MUM_Route_A,STOP_4,Andheri,08:46:10,,00:28:24,,17.0,12.0,Tuesday,2024-08-11,Humid
TRIP_435,MH-BUS-1,MUM_Route_C,STOP_7,Kurla,09:59:48,10:00:48,05:10:20,05:12:20,27.0,24.0,Monday,2024-08-01,
TRIP_436,MH-BUS-3,MUM_Route_B,STOP_3,CST,16:17:29,16:25:29,21:49:03,21:55:03,16.0,0.0,Tuesday,2024-06-17,Monsoon
TRIP_437,MH-BUS-1,MUM_Route_C,STOP_6,Kharghar,15:21:54,15:24:54,23:41:30,23:49:30,26.0,25.0,Wednesday,2024-08-04,Humid
TRIP_438,MH-BUS-9,MUM_Route_D,STOP_14,Bandra,22:32:10,22:34:10,17:08:44,17:11:44,17.0,29.0,Sunday,2024-07-07,Monsoon
TRIP_439,MH-BUS-9,MUM_Route_B,STOP_8,Kharghar,19:26:57,19:24:57,08:16:02,08:25:02,10.0,36.0,Tuesday,2024-06-14,Sunny
TRIP_440,MH-BUS-8,MUM_Route_E,STOP_3,Nerul,14:48:45,15:02:45,13:35:16,13:43:16,,9.0,Sunday,2024-06-19,Partly Cloudy
TRIP_441,MH-BUS-8,MUM_Route_A,STOP_16,Worli,21:50:40,21:51:40,10:43:57,10:46:57,51.0,0.0,Thursday,2024-08-25,
TRIP_442,MH-BUS-9,MUM_Route_A,STOP_1,Belapur,13:50:00,13:59:00,00:40:06,00:44:06,32.0,18.0,Thursday,2024-08-26,Partly Cloudy
TRIP_443,MH-BUS-6,MUM_Route_C,STOP_14,Panvel,18:38:30,18:35:30,04:42:35,04:47:35,12.0,15.0,Tuesday,2024-06-12,Partly Cloudy
TRIP_444,MH-BUS-8,MUM_Route_B,STOP_11,Mulund,17:11:22,17:12:22,00:38:18,00:41:18,34.0,,Friday,2024-07-25,Partly Cloudy
TRIP_445,MH-BUS-7,MUM_Route_C,STOP_9,Nerul,03:50:06,03:59:06,09:13:29,09:22:29,13.0,21.0,Sunday,2024-07-31,Humid
TRIP_446,MH-BUS-5,MUM_Route_B,STOP_2,Colaba,03:25:42,03:41:42,09:16:20,09:25:20,59.0,6.0,Thursday,2024-08-24,Rainy
TRIP_447,MH-BUS-8,MUM_Route_D,STOP_5,Dadar,17:02:06,17:00:06,13:03:20,13:09:20,0.0,24.0,Saturday,2024-06-27,Rainy
TRIP_448,MH-BUS-9,MUM_Route_D,STOP_13,Panvel,22:16:57,22:14:57,22:33:31,22:36:31,20.0,0.0,Sunday,2024-07-08,RAINY
TRIP_449,MH-BUS-9,MUM_Route_A,STOP_14,Worli,11:30:36,,01:42:00,01:47:00,30.0,42.0,Thursday,2024-07-06,Monsoon
TRIP_450,MH-BUS-9,MUM_Route_E,STOP_18,Powai,10:15:27,10:21:27,07:30:46,07:39:46,3.0,0.0,Tuesday,2024-08-30,
TRIP_451,MH-BUS-10,MUM_Route_A,STOP_18,Kharghar,14:17:07,14:28:07,17:10:32,17:13:32,14.0,15.0,Saturday,2024-08-19,Partly Cloudy
TRIP_452,MH-BUS-6,MUM_Route_B,STOP_4,Andheri,00:40:43,00:48:43,07:58:52,08:06:52,7.0,36.0,Wednesday,2024-07-14,Cloudy
TRIP_453,MH-BUS-10,MUM_Route_B,STOP_14,Worli,03:31:55,03:37:55,10:42:01,10:44:01,15.0,3.0,Thursday,2024-07-07,Sunny
TRIP_454,MH-BUS-5,MUM_Route_C,STOP_6,Ghatkopar,05:30:19,05:40:19,08:03:07,08:08:07,44.0,17.0,Wednesday,2024-08-31,Partly Cloudy
TRIP_455,MH-BUS-9,MUM_Route_E,STOP_10,Dadar,14:44:11,15:00:11,04:35:23,,15.0,13.0,Monday,2024-08-14,Humid
TRIP_456,MH-BUS-3,MUM_Route_A,STOP_17,Mulund,16:24:01,16:40:01,03:35:24,03:42:24,36.0,5.0,Wednesday,2024-08-17,Partly Cloudy
TRIP_457,MH-BUS-8,MUM_Route_E,STOP_7,Worli,07:51:45,,21:18:03,21:27:03,41.0,,Saturday,2024-06-17,Sunny
TRIP_458,MH-BUS-3,MUM_Route_B,STOP_10,Vashi,13:22:28,13:25:28,02:23:42,02:29:42,16.0,52.0,Wednesday,2024-08-12,Monsoon
TRIP_459,MH-BUS-3,MUM_Route_E,STOP_13,Kharghar,15:13:35,15:11:35,01:39:39,01:43:39,29.0,7.0,Thursday,2024-07-26,HUMID
TRIP_460,MH-BUS-6,MUM_Route_E,STOP_11,Kurla,09:32:13,09:31:13,04:11:26,04:11:26,35.0,28.0,Saturday,2024-07-06,Sunny
TRIP_461,MH-BUS-10,MUM_Route_B,STOP_3,Thane,19:23:41,19:38:41,14:43:06,14:43:06,29.0,,Wednesday,2024-06-30,Partly Cloudy
TRIP_462,MH-BUS-10,MUM_Route_D,STOP_4,Powai,00:57:21,01:02:21,23:34:28,23:37:28,42.0,31.0,Monday,2024-07-25,Partly Cloudy
TRIP_463,MH-BUS-6,MUM_Route_E,STOP_4,Worli,15:40:27,15:39:27,16:00:44,16:00:44,18.0,-2.0,Wednesday,2024-08-22,Monsoon
TRIP_464,MH-BUS-3,MUM_Route_C,STOP_14,Powai,09:57:25,10:04:25,00:03:45,,,34.0,Monday,2024-06-11,Cloudy
TRIP_465,MH-BUS-5,MUM_Route_E,STOP_3,Mulund,02:51:26,03:01:26,08:25:05,08:28:05,13.0,37.0,Monday,2024-06-29,Monsoon
TRIP_466,MH-BUS-4,MUM_Route_A,STOP_18,Panvel,09:20:24,09:24:24,21:03:40,21:09:40,8.0,4.0,Saturday,2024-06-13,Sunny
TRIP_467,MH-BUS-8,MUM_Route_E,STOP_13,Kurla,13:28:41,13:31:41,08:15:52,08:25:52,0.0,,Monday,2024-08-08,
TRIP_468,MH-BUS-1,MUM_Route_D,STOP_12,Thane,18:34:59,18:34:59,22:46:24,22:50:24,26.0,,Wednesday,2024-08-19,Cloudy
TRIP_469,MH-BUS-7,MUM_Route_A,STOP_8,Kharghar,11:43:02,12:01:02,23:17:19,23:26:19,3.0,-2.0,Tuesday,2024-08-02,Partly Cloudy
TRIP_470,MH-BUS-2,MUM_Route_A,STOP_7,Mulund,17:52:10,17:56:10,19:11:55,19:17:55,47.0,17.0,Friday,2024-07-22,Monsoon
TRIP_471,MH-BUS-8,MUM_Route_B,STOP_10,CST,23:29:12,23:44:12,01:04:52,01:07:52,17.0,26.0,Monday,2024-08-02,Partly Cloudy
TRIP_472,MH-BUS-6,MUM_Route_C,STOP_3,Panvel,03:57:40,03:59:40,10:25:05,10:32:05,27.0,27.0,Wednesday,2024-08-20,Monsoon
TRIP_473,MH-BUS-7,MUM_Route_D,STOP_18,Worli,02:33:58,02:29:58,22:21:12,22:30:12,34.0,54.0,Friday,2024-06-22,Cloudy
TRIP_474,MH-BUS-5,MUM_Route_D,STOP_7,Belapur,04:04:36,03:59:36,18:18:09,18:19:09,36.0,29.0,Sunday,2024-08-26,Sunny
TRIP_475,MH-BUS-10,MUM_Route_E,STOP_11,Worli,14:16:34,14:22:34,06:24:53,06:27:53,42.0,36.0,Wednesday,2024-07-26,Cloudy
TRIP_476,MH-BUS-5,MUM_Route_C,STOP_14,Kurla,21:11:03,21:13:03,21:59:01,21:59:01,20.0,30.0,Thursday,2024-08-20,Humid
TRIP_477,MH-BUS-7,MUM_Route_C,STOP_11,Lower Parel,15:12:48,15:25:48,11:29:14,11:31:14,24.0,8.0,Saturday,2024-08-28,Sunny
TRIP_478,MH-BUS-4,MUM_Route_B,STOP_18,Lower Parel,23:54:49,23:57:49,05:31:12,05:32:12,15.0,17.0,Friday,2024-08-11,Cloudy
TRIP_479,MH-BUS-2,MUM_Route_C,STOP_18,Nerul,14:10:46,14:10:46,16:35:30,16:37:30,26.0,0.0,Wednesday,2024-08-24,Monsoon
TRIP_480,MH-BUS-2,MUM_Route_A,STOP_12,Nerul,16:50:46,17:04:46,00:24:21,00:27:21,17.0,36.0,Friday,2024-06-26,Humid
TRIP_481,MH-BUS-10,MUM_Route_B,STOP_4,Chembur,17:32:08,17:32:08,14:39:09,14:41:09,14.0,22.0,Sunday,2024-06-17,Sunny
TRIP_482,MH-BUS-10,MUM_Route_E,STOP_19,Belapur,20:45:58,20:42:58,01:21:44,01:30:44,27.0,12.0,Thursday,2024-06-06,Partly Cloudy
TRIP_483,MH-BUS-1,MUM_Route_E,STOP_19,Ghatkopar,14:58:36,15:16:36,10:37:01,10:46:01,17.0,39.0,Thursday,2024-08-10,Cloudy
TRIP_484,MH-BUS-6,MUM_Route_D,STOP_4,Chembur,13:32:18,13:41:18,02:41:39,02:44:39,0.0,6.0,Thursday,2024-08-01,Humid
TRIP_485,MH-BUS-7,MUM_Route_E,STOP_8,Colaba,20:25:04,20:34:04,10:57:52,10:57:52,25.0,36.0,Thursday,2024-06-19,Cloudy
TRIP_486,MH-BUS-6,MUM_Route_A,STOP_12,Ghatkopar,05:59:11,05:59:11,23:01:01,23:02:01,43.0,30.0,Friday,2024-06-25,Rainy
TRIP_487,MH-BUS-3,MUM_Route_B,STOP_18,Churchgate,09:10:00,09:29:00,03:44:42,03:52:42,35.0,32.0,Wednesday,2024-06-01,Cloudy
TRIP_488,MH-BUS-1,MUM_Route_D,STOP_4,Thane,13:35:04,13:45:04,23:45:17,23:55:17,,29.0,Tuesday,2024-08-12,Sunny
TRIP_489,MH-BUS-6,MUM_Route_A,STOP_15,Borivali,04:28:04,04:30:04,02:30:39,02:40:39,20.0,18.0,Monday,2024-06-03,Sunny
TRIP_490,MH-BUS-3,MUM_Route_B,STOP_19,Mulund,02:57:17,,08:07:25,08:07:25,48.0,9.0,Monday,2024-07-18,Rainy
TRIP_491,MH-BUS-8,MUM_Route_C,STOP_5,Kharghar,20:52:38,20:47:38,06:00:53,,,13.0,Monday,2024-07-03,Sunny
TRIP_492,MH-BUS-8,MUM_Route_C,STOP_2,Panvel,07:56:45,08:03:45AM,03:53:20,04:03:20,42.0,19.0,Tuesday,2024-06-16,PARTLY CLOUDY
TRIP_493,MH-BUS-3,MUM_Route_E,STOP_13,Panvel,18:00:27,,08:10:38,08:10:38,9.0,29.0,Thursday,2024-06-24,partly cloudy
TRIP_494,MH-BUS-7,MUM_Route_A,STOP_3,Nerul,15:06:21,15:02:21,03:08:23,,50.0,23.0,Tuesday,2024-08-05,Rainy
TRIP_495,MH-BUS-4,MUM_Route_E,STOP_7,Kharghar,11:46:15,11:46:15,17:17:44,17:22:44,21.0,23.0,Sunday,2024-06-21,Partly Cloudy
TRIP_496,MH-BUS-7,MUM_Route_B,STOP_10,Powai,13:49:24,13:53:24,23:59:49,00:03:49,46.0,28.0,Sunday,2024-06-05,Sunny
TRIP_497,MH-BUS-1,MUM_Route_D,STOP_7,Dadar,20:06:38,20:07:38,15:04:13,15:13:13,5.0,30.0,Monday,2024-06-26,Sunny
TRIP_498,MH-BUS-8,MUM_Route_B,STOP_15,Worli,11:34:00,11:51:00,12:27:48,12:29:48,32.0,39.0,Thursday,2024-07-07,Rainy
TRIP_499,MH-BUS-9,MUM_Route_A,STOP_20,Panvel,08:02:17,08:04:17,03:21:16,03:30:16,0.0,35.0,Saturday,2024-08-03,
TRIP_500,MH-BUS-10,MUM_Route_C,STOP_2,Dadar,18:02:35,18:10:35,04:38:35,04:39:35,16.0,20.0,Saturday,2024-07-26,Sunny
TRIP_501,MH-BUS-2,MUM_Route_E,STOP_15,Ghatkopar,04:36:09,04:47:09,21:01:53,211153,23.0,22.0,Thursday,2024-06-04,Sunny
TRIP_502,MH-BUS-8,MUM_Route_D,STOP_5,Kharghar,13:04:29,12:59:29,07:37:24,07:46:24,,0.0,Monday,2024-08-12,Sunny
TRIP_503,MH-BUS-9,MUM_Route_D,STOP_16,Ghatkopar,10:39:36,10:47:36,18:29:39,18:35:39,7.0,19.0,Monday,2024-07-28,Cloudy
TRIP_504,MH-BUS-7,MUM_Route_B,STOP_18,Vashi,07:20:24,07:16:24,22:26:13,22:34:13,18.0,,Monday,2024-07-24,Humid
TRIP_505,MH-BUS-7,MUM_Route_A,STOP_13,Belapur,07:33:26,07:49:26,01:52:17,01:57:17,23.0,17.0,Thursday,2024-08-10,Sunny
TRIP_506,MH-BUS-2,MUM_Route_D,STOP_3,Vashi,09:52:51,09:48:51,12:16:55,12:21:55,49.0,26.0,Tuesday,2024-08-04,MONSOON
TRIP_507,MH-BUS-2,MUM_Route_B,STOP_6,Powai,23:31:43,23:47:43,17:04:59,17:09:59,4.0,48.0,Wednesday,2024-08-28,Cloudy
TRIP_508,MH-BUS-7,MUM_Route_D,STOP_7,Vashi,00:27:18,00:35:18,03:30:20,03:38:20,16.0,66.0,Tuesday,2024-08-16,Sunny
TRIP_509,MH-BUS-9,MUM_Route_D,STOP_6,Vashi,00:44:50,00:43:50,20:16:33,20:21:33,22.0,19.0,Thursday,2024-08-24,Monsoon
TRIP_510,MH-BUS-10,MUM_Route_B,STOP_12,Nerul,10:08:42,,18:30:54,18:34:54,43.0,11.0,Friday,2024-07-03,Monsoon
TRIP_511,MH-BUS-5,MUM_Route_D,STOP_9,Kurla,11:59:37,12:14:37,11:36:00,11:39:00,25.0,7.0,Wednesday,2024-08-28,Sunny
TRIP_512,MH-BUS-10,MUM_Route_B,STOP_10,Belapur,14:42:28,02:47:28PM,15:32:20,154220,37.0,27.0,Monday,2024-06-20,Cloudy
TRIP_513,MH-BUS-7,MUM_Route_E,STOP_1,Panvel,16:47:04,16:45:04,21:42:43,21:49:43,,0.0,Saturday,2024-08-19,Humid
TRIP_514,MH-BUS-2,MUM_Route_B,STOP_11,CST,11:43:26,11:56:26,03:19:31,03:19:31,27.0,0.0,Sunday,2024-07-07,Partly Cloudy
TRIP_515,MH-BUS-1,MUM_Route_E,STOP_17,CST,15:13:38,15:09:38,03:05:15,03:12:15,18.0,14.0,Friday,2024-08-11,Rainy
TRIP_516,MH-BUS-7,MUM_Route_A,STOP_12,Kurla,05:28:31,05:24:31,02:25:40,02:28:40,22.0,31.0,Thursday,2024-08-23,Partly Cloudy
TRIP_517,MH-BUS-1,MUM_Route_A,STOP_13,Ghatkopar,06:12:46,06:20:46,15:54:56,15:57:56,36.0,23.0,Monday,2024-06-28,Sunny
TRIP_518,MH-BUS-8,MUM_Route_A,STOP_20,Worli,03:50:27,04:09:27,21:47:09,09:50:09PM,20.0,33.0,Saturday,2024-07-09,Sunny
TRIP_519,MH-BUS-10,MUM_Route_B,STOP_12,Dadar,08:53:04,09:00:04,10:22:02,10:22:02,22.0,18.0,Saturday,2024-06-23,Rainy
TRIP_520,MH-BUS-7,MUM_Route_A,STOP_8,CST,12:22:39,12:37:39,16:49:35,16:50:35,42.0,42.0,Wednesday,2024-06-24,Rainy
TRIP_521,MH-BUS-9,MUM_Route_E,STOP_20,CST,03:31:54,03:37:54,06:12:04,06:13:04,33.0,,Sunday,2024-06-08,Partly Cloudy
TRIP_522,MH-BUS-9,MUM_Route_A,STOP_11,Thane,19:38:31,19:46:31,12:27:48,12:33:48,5.0,4.0,Tuesday,2024-08-18,Rainy
TRIP_523,MH-BUS-8,MUM_Route_C,STOP_2,Lower Parel,20:07:55,20:16:55,03:31:04,03:36:04,17.0,25.0,Friday,2024-07-12,Partly Cloudy
TRIP_524,MH-BUS-1,MUM_Route_A,STOP_13,Mulund,07:58:32,08:11:32,17:43:27,17:48:27,25.0,24.0,Monday,2024-06-26,Sunny
TRIP_525,MH-BUS-2,MUM_Route_B,STOP_11,Powai,14:59:22,15:14:22,03:55:18,03:57:18,43.0,29.0,Sunday,2024-07-18,Rainy
TRIP_526,MH-BUS-3,MUM_Route_A,STOP_17,Churchgate,12:30:14,12:49:14,23:16:17,23:22:17,0.0,5.0,Wednesday,2024-08-05,Sunny
TRIP_527,MH-BUS-4,MUM_Route_E,STOP_18,Dadar,03:12:00,03:13:00,19:58:49,20:03:49,9.0,15.0,Sunday,2024-06-16,Sunny
TRIP_528,MH-BUS-6,MUM_Route_A,STOP_7,Kharghar,19:46:05,20:01:05,10:21:45,10:25:45,25.0,,Sunday,2024-08-03,Partly Cloudy
TRIP_529,MH-BUS-8,MUM_Route_D,STOP_2,Belapur,02:32:38,02:41:38,14:45:33,14:48:33,21.0,40.0,Monday,2024-08-16,
TRIP_530,MH-BUS-9,MUM_Route_E,STOP_4,Worli,19:11:24,19:14:24,10:35:38,10:36:38,44.0,23.0,Wednesday,2024-07-15,Humid
TRIP_531,MH-BUS-1,MUM_Route_E,STOP_2,Kurla,08:55:43,08:54:43,03:35:25,03:41:25,10.0,47.0,Monday,2024-07-07,Rainy
TRIP_532,MH-BUS-4,MUM_Route_C,STOP_11,Bandra,22:07:24,22:12:24,11:16:23,11:25:23,31.0,16.0,Saturday,2024-08-03,Cloudy
TRIP_533,MH-BUS-5,MUM_Route_E,STOP_6,Mulund,13:51:34,13:48:34,14:30:44,14:37:44,19.0,28.0,Wednesday,2024-06-21,Cloudy
TRIP_534,MH-BUS-1,MUM_Route_A,STOP_8,Colaba,10:50:44,11:03:44,21:28:42,21:29:42,0.0,16.0,Wednesday,2024-08-19,Partly Cloudy
TRIP_535,MH-BUS-9,MUM_Route_A,STOP_14,Colaba,14:39:25,14:47:25,06:50:43,06:52:43,10.0,0.0,Monday,2024-07-16,Monsoon
TRIP_536,MH-BUS-10,MUM_Route_C,STOP_20,Mulund,04:23:57,042657,03:23:42,03:29:42,4.0,14.0,Tuesday,2024-07-14,partly cloudy
TRIP_537,MH-BUS-1,MUM_Route_B,STOP_14,Nerul,12:59:56,13:13:56,03:43:39,03:43:39,50.0,0.0,Friday,2024-07-20,Cloudy
TRIP_538,MH-BUS-10,MUM_Route_C,STOP_8,Kurla,04:34:59,04:32:59,23:05:33,23:05:33,49.0,15.0,Thursday,2024-06-09,Partly Cloudy
TRIP_539,MH-BUS-5,MUM_Route_D,STOP_3,CST,22:33:07,22:43:07,04:08:52,04:11:52,18.0,21.0,Friday,2024-08-08,Monsoon
TRIP_540,MH-BUS-5,MUM_Route_B,STOP_1,Powai,05:38:33,,16:43:04,16:43:04,14.0,47.0,Wednesday,2024-06-08,Partly Cloudy
TRIP_541,MH-BUS-4,MUM_Route_B,STOP_6,Bandra,01:32:44,01:38:44,08:19:27,08:22:27,54.0,19.0,Tuesday,2024-08-12,
TRIP_542,MH-BUS-6,MUM_Route_C,STOP_11,Panvel,18:05:43,18:13:43,21:23:45,21:31:45,52.0,21.0,Friday,2024-07-07,Sunny
TRIP_543,MH-BUS-9,MUM_Route_C,STOP_19,CST,12:25:50,12:28:50,13:48:27,13:51:27,24.0,11.0,Monday,2024-06-24,Sunny
TRIP_544,MH-BUS-1,MUM_Route_B,STOP_15,Andheri,04:31:26,04:30:26,05:51:27,05:58:27,29.0,27.0,Tuesday,2024-06-21,Sunny
TRIP_545,MH-BUS-8,MUM_Route_B,STOP_18,Kharghar,11:18:16,11:35:16,05:43:54,05:45:54,39.0,2.0,Tuesday,2024-08-04,Humid
TRIP_546,MH-BUS-5,MUM_Route_E,STOP_13,Churchgate,14:23:35,14:38:35,14:27:25,14:34:25,55.0,0.0,Wednesday,2024-06-29,
TRIP_547,MH-BUS-8,MUM_Route_C,STOP_15,Nerul,03:38:22,03:55:22,17:17:05,17:21:05,12.0,21.0,Saturday,2024-06-23,Sunny
TRIP_548,MH-BUS-10,MUM_Route_E,STOP_7,Borivali,00:25:45,00:37:45,00:32:46,00:39:46,11.0,,Friday,2024-06-18,Rainy
TRIP_549,MH-BUS-5,MUM_Route_C,STOP_10,Dadar,13:36:46,13:41:46,01:10:31,01:13:31,39.0,23.0,Saturday,2024-06-11,
TRIP_550,MH-BUS-8,MUM_Route_E,STOP_13,Colaba,02:04:13,02:13:13,07:32:21,07:36:21,,50.0,Sunday,2024-07-04,Cloudy
TRIP_551,MH-BUS-4,MUM_Route_D,STOP_8,CST,13:32:19,13:49:19,00:56:12,00:57:12,37.0,36.0,Wednesday,2024-08-13,Sunny
TRIP_552,MH-BUS-6,MUM_Route_B,STOP_6,Kurla,11:27:42,11:41:42,04:11:42,04:17:42,,0.0,Thursday,2024-06-07,Cloudy
TRIP_553,MH-BUS-6,MUM_Route_E,STOP_2,Ghatkopar,06:52:22,06:51:22,08:05:16,08:10:16,,43.0,Friday,2024-08-04,Rainy
TRIP_554,MH-BUS-4,MUM_Route_D,STOP_3,Belapur,08:54:01,08:55:01,11:02:16,11:06:16,45.0,9.0,Thursday,2024-07-09,Humid
TRIP_555,MH-BUS-6,MUM_Route_E,STOP_18,Dadar,12:13:59,12:24:59,07:44:26,07:47:26,1.0,54.0,Monday,2024-06-01,Monsoon
TRIP_556,MH-BUS-5,MUM_Route_C,STOP_4,Borivali,14:35:27,14:46:27,13:34:03,13:38:03,11.0,22.0,Tuesday,2024-06-23,Cloudy
TRIP_557,MH-BUS-6,MUM_Route_B,STOP_6,Kharghar,09:25:30,09:41:30,19:25:57,19:34:57,29.0,35.0,Tuesday,2024-06-29,Sunny
TRIP_558,MH-BUS-6,MUM_Route_C,STOP_20,Nerul,07:17:38,07:24:38,05:43:15,05:43:15,13.0,31.0,Monday,2024-07-18,Humid
TRIP_559,MH-BUS-5,MUM_Route_A,STOP_11,Kharghar,05:28:31,05:29:31,16:01:31,16:07:31,0.0,22.0,Wednesday,2024-07-11,Rainy
TRIP_560,MH-BUS-1,MUM_Route_D,STOP_3,Belapur,04:55:52,05:06:52,05:46:46,05:54:46,36.0,10.0,Thursday,2024-08-22,
TRIP_561,MH-BUS-8,MUM_Route_E,STOP_12,CST,12:31:52,12:33:52,23:57:14,,26.0,18.0,Saturday,2024-07-14,Sunny
TRIP_562,MH-BUS-7,MUM_Route_B,STOP_4,Thane,01:13:54,01:23:54,10:36:54,10:39:54,37.0,6.0,Tuesday,2024-08-15,Partly Cloudy
TRIP_563,MH-BUS-4,MUM_Route_C,STOP_12,Vashi,22:36:10,22:54:10,06:09:36,06:11:36,80.0,2.0,Friday,2024-07-09,Humid
TRIP_564,MH-BUS-3,MUM_Route_D,STOP_20,Dadar,08:10:02,08:16:02,18:47:03,18:55:03,32.0,11.0,Sunday,2024-07-06,Monsoon
TRIP_565,MH-BUS-2,MUM_Route_B,STOP_1,Belapur,10:58:47,11:02:47,02:43:27,02:49:27,,,Sunday,2024-08-25,Monsoon
TRIP_566,MH-BUS-2,MUM_Route_B,STOP_13,Kharghar,12:19:30,12:31:30,12:20:38,12:24:38,19.0,,Tuesday,2024-08-23,
TRIP_567,MH-BUS-6,MUM_Route_E,STOP_20,Chembur,04:52:48,04:56:48,14:47:38,14:47:38,30.0,21.0,Monday,2024-08-11,Partly Cloudy
TRIP_568,MH-BUS-10,MUM_Route_C,STOP_15,Lower Parel,18:06:41,,21:45:56,21:54:56,21.0,8.0,Sunday,2024-07-26,Monsoon
TRIP_569,MH-BUS-7,MUM_Route_B,STOP_12,Mulund,06:14:23,06:15:23,00:12:36,00:22:36,44.0,13.0,Saturday,2024-08-28,Monsoon
TRIP_570,MH-BUS-2,MUM_Route_A,STOP_19,Kurla,19:22:23,19:42:23,22:47:35,22:52:35,28.0,0.0,Monday,2024-07-01,Humid
TRIP_571,MH-BUS-2,MUM_Route_E,STOP_4,Thane,02:55:01,02:57:01,00:01:48,,55.0,0.0,Saturday,2024-07-11,Partly Cloudy
TRIP_572,MH-BUS-2,MUM_Route_B,STOP_3,Panvel,08:15:03,08:15:03,12:19:24,12:26:24,21.0,18.0,Thursday,2024-07-25,Partly Cloudy
TRIP_573,MH-BUS-1,MUM_Route_D,STOP_13,Andheri,05:36:48,05:35:48,03:07:43,03:08:43,46.0,0.0,Friday,2024-07-16,Rainy
TRIP_574,MH-BUS-3,MUM_Route_D,STOP_15,Powai,22:16:57,,21:47:57,21:51:57,38.0,10.0,Friday,2024-06-08,MONSOON
TRIP_575,MH-BUS-6,MUM_Route_A,STOP_10,Thane,12:10:58,12:18:58,09:49:21,09:53:21,19.0,0.0,Sunday,2024-06-17,Rainy
TRIP_576,MH-BUS-8,MUM_Route_E,STOP_5,Panvel,23:31:27,23:37:27,13:33:33,01:33:33PM,29.0,17.0,Saturday,2024-07-10,Sunny
TRIP_577,MH-BUS-4,MUM_Route_C,STOP_4,Chembur,00:01:01,23:57:01,11:01:36,11:06:36,35.0,31.0,Saturday,2024-08-20,Rainy
TRIP_578,MH-BUS-1,MUM_Route_C,STOP_12,Worli,11:39:22,11:59:22,20:35:12,20:37:12,31.0,30.0,Saturday,2024-06-19,Partly Cloudy
TRIP_579,MH-BUS-1,MUM_Route_B,STOP_7,Mulund,01:33:13,01:28:13,17:08:24,17:10:24,45.0,8.0,Saturday,2024-08-14,
TRIP_580,MH-BUS-4,MUM_Route_E,STOP_14,Borivali,03:22:31,03:31:31,10:37:05,10:43:05,0.0,22.0,Tuesday,2024-08-09,Cloudy
TRIP_581,MH-BUS-7,MUM_Route_D,STOP_16,Andheri,16:39:59,16:37:59,01:10:11,01:18:11,25.0,24.0,Tuesday,2024-07-19,Partly Cloudy
TRIP_582,MH-BUS-2,MUM_Route_C,STOP_4,Kurla,22:47:05,22:58:05,03:51:43,04:01:43,35.0,13.0,Thursday,2024-07-09,Rainy
TRIP_583,MH-BUS-8,MUM_Route_D,STOP_1,Nerul,09:09:09,091209,09:45:36,09:55:36,54.0,0.0,Tuesday,2024-08-09,
TRIP_584,MH-BUS-4,MUM_Route_A,STOP_11,Kurla,06:32:26,06:44:26,13:06:40,13:09:40,48.0,32.0,Monday,2024-07-20,Rainy
TRIP_585,MH-BUS-5,MUM_Route_D,STOP_1,Borivali,23:49:17,00:08:17,17:20:57,17:26:57,6.0,18.0,Thursday,2024-08-17,Monsoon
TRIP_586,MH-BUS-1,MUM_Route_A,STOP_11,Belapur,09:35:03,09:32:03,14:16:11,14:22:11,4.0,36.0,Monday,2024-08-16,Sunny
TRIP_587,MH-BUS-8,MUM_Route_A,STOP_13,Andheri,03:44:56,,12:17:35,12:26:35,16.0,32.0,Tuesday,2024-08-01,Sunny
TRIP_588,MH-BUS-7,MUM_Route_E,STOP_12,Worli,04:04:00,04:20:00,17:55:05,17:59:05,68.0,22.0,Sunday,2024-07-12,Cloudy
TRIP_589,MH-BUS-5,MUM_Route_E,STOP_2,Colaba,23:39:00,11:44:00PM,21:07:52,21:17:52,50.0,42.0,Friday,2024-08-31,Partly Cloudy
TRIP_590,MH-BUS-7,MUM_Route_C,STOP_15,Nerul,08:26:30,08:38:30,05:00:23,05:10:23,12.0,13.0,Thursday,2024-07-27,
TRIP_591,MH-BUS-8,MUM_Route_B,STOP_11,Colaba,03:44:06,04:01:06,14:02:37,14:08:37,39.0,35.0,Tuesday,2024-08-29,Rainy
TRIP_592,MH-BUS-4,MUM_Route_D,STOP_2,CST,04:59:27,05:03:27,07:36:15,07:36:15,21.0,,Wednesday,2024-06-16,Partly Cloudy
TRIP_593,MH-BUS-10,MUM_Route_A,STOP_11,Thane,22:29:15,,02:48:22,02:54:22,46.0,16.0,Saturday,2024-06-27,Cloudy
TRIP_594,MH-BUS-1,MUM_Route_D,STOP_1,Lower Parel,03:27:01,03:43:01,23:21:18,23:26:18,30.0,32.0,Wednesday,2024-08-05,Partly Cloudy
TRIP_595,MH-BUS-7,MUM_Route_C,STOP_4,Mulund,08:12:41,08:28:41,11:00:02,11:10:02,29.0,12.0,Tuesday,2024-08-03,Cloudy
TRIP_596,MH-BUS-9,MUM_Route_D,STOP_19,Belapur,15:08:16,15:23:16,02:26:07,,0.0,39.0,Sunday,2024-07-23,
TRIP_597,MH-BUS-5,MUM_Route_A,STOP_4,Andheri,21:36:33,21:40:33,12:39:12,12:40:12,22.0,0.0,Sunday,2024-06-18,Partly Cloudy
TRIP_598,MH-BUS-3,MUM_Route_C,STOP_5,Mulund,07:44:52,07:49:52,08:48:01,08:57:01,3.0,20.0,Saturday,2024-07-11,Cloudy
TRIP_599,MH-BUS-3,MUM_Route_B,STOP_8,Mulund,07:12:53,07:23:53,08:21:16,08:21:16,26.0,39.0,Tuesday,2024-07-21,Sunny
TRIP_600,MH-BUS-2,MUM_Route_B,STOP_3,Belapur,02:49:24,03:01:24,05:13:39,05:21:39AM,33.0,19.0,Thursday,2024-08-19,
TRIP_601,MH-BUS-6,MUM_Route_E,STOP_13,Andheri,16:17:23,16:32:23,00:42:16,00:42:16,26.0,10.0,Saturday,2024-07-17,
TRIP_602,MH-BUS-1,MUM_Route_B,STOP_2,Churchgate,05:30:36,05:29:36,22:55:27,22:57:27,5.0,0.0,Tuesday,2024-08-26,Rainy
TRIP_603,MH-BUS-9,MUM_Route_C,STOP_19,Colaba,00:53:59,00:50:59,02:36:13,02:38:13,21.0,12.0,Monday,2024-08-04,Cloudy
TRIP_604,MH-BUS-8,MUM_Route_B,STOP_1,Kurla,01:10:43,01:29:43,08:26:27,08:36:27,27.0,0.0,Thursday,2024-07-15,Humid
TRIP_605,MH-BUS-8,MUM_Route_A,STOP_12,Borivali,01:07:42,01:27:42,04:08:07,04:12:07,12.0,0.0,Friday,2024-06-07,Cloudy
TRIP_606,MH-BUS-8,MUM_Route_C,STOP_18,Mulund,14:37:08,14:33:08,00:12:19,00:14:19,23.0,10.0,Sunday,2024-08-20,Cloudy
TRIP_607,MH-BUS-4,MUM_Route_D,STOP_15,Panvel,20:36:08,20:55:08,06:46:15,06:52:15,20.0,41.0,Monday,2024-08-16,Humid
TRIP_608,MH-BUS-8,MUM_Route_E,STOP_6,Kharghar,02:10:14,02:11:14,20:05:53,20:15:53,12.0,46.0,Saturday,2024-07-12,Cloudy
TRIP_609,MH-BUS-1,MUM_Route_D,STOP_6,Belapur,10:13:41,10:25:41,19:06:30,19:15:30,-5.0,0.0,Sunday,2024-08-03,Cloudy
TRIP_610,MH-BUS-6,MUM_Route_E,STOP_14,Lower Parel,06:48:01,06:59:01,12:50:05,13:00:05,43.0,,Friday,2024-07-26,Humid
TRIP_611,MH-BUS-1,MUM_Route_D,STOP_7,Ghatkopar,17:32:19,17:42:19,03:58:35,04:03:35,32.0,4.0,Thursday,2024-08-31,Cloudy
TRIP_612,MH-BUS-3,MUM_Route_E,STOP_11,Kurla,20:57:45,,10:15:50,10:16:50,15.0,32.0,Sunday,2024-06-12,Humid
TRIP_613,MH-BUS-5,MUM_Route_A,STOP_20,Borivali,12:11:35,122035,11:55:57,12:04:57,58.0,24.0,Tuesday,2024-07-30,Sunny
TRIP_614,MH-BUS-4,MUM_Route_B,STOP_10,Belapur,04:14:58,04:19:58,05:49:26,05:57:26,20.0,26.0,Monday,2024-08-29,Monsoon
TRIP_615,MH-BUS-8,MUM_Route_A,STOP_11,Andheri,06:49:38,06:44:38,11:55:07,11:56:07,29.0,29.0,Wednesday,2024-07-16,Rainy
TRIP_616,MH-BUS-10,MUM_Route_D,STOP_11,Dadar,02:06:53,02:25:53AM,02:28:06,02:35:06,14.0,34.0,Sunday,2024-08-29,Sunny
TRIP_617,MH-BUS-6,MUM_Route_B,STOP_7,Churchgate,12:46:16,12:52:16,11:59:20,11:59:20,33.0,0.0,Saturday,2024-06-14,Humid
TRIP_618,MH-BUS-2,MUM_Route_C,STOP_18,Kharghar,16:51:11,16:49:11,22:36:30,22:42:30,26.0,0.0,Wednesday,2024-08-08,Partly Cloudy
TRIP_619,MH-BUS-5,MUM_Route_E,STOP_18,Vashi,15:25:17,15:21:17,21:45:35,21:51:35,40.0,0.0,Sunday,2024-08-09,Rainy
TRIP_620,MH-BUS-3,MUM_Route_A,STOP_14,Mulund,02:41:53,02:58:53,01:45:34,01:53:34,3.0,3.0,Thursday,2024-06-16,Humid
TRIP_621,MH-BUS-6,MUM_Route_D,STOP_12,Colaba,16:16:00,16:21:00,18:13:54,18:21:54,13.0,27.0,Saturday,2024-06-26,Humid
TRIP_622,MH-BUS-5,MUM_Route_C,STOP_16,Lower Parel,19:50:43,20:07:43,02:18:04,02:25:04,4.0,48.0,Tuesday,2024-08-29,Rainy
TRIP_623,MH-BUS-3,MUM_Route_A,STOP_17,Borivali,10:39:33,10:38:33,03:00:05,03:00:05,15.0,0.0,Tuesday,2024-06-08,Partly Cloudy
TRIP_624,MH-BUS-5,MUM_Route_D,STOP_17,Andheri,18:01:01,18:03:01,20:00:04,20:00:04,31.0,29.0,Monday,2024-06-01,Rainy
TRIP_625,MH-BUS-2,MUM_Route_C,STOP_16,Lower Parel,06:16:16,06:27:16,08:17:45,08:23:45,37.0,13.0,Sunday,2024-06-08,Monsoon
TRIP_626,MH-BUS-1,MUM_Route_A,STOP_4,Mulund,07:26:15,07:43:15,11:02:34,11:12:34,30.0,23.0,Saturday,2024-07-31,Rainy
TRIP_627,MH-BUS-3,MUM_Route_A,STOP_16,Kharghar,12:35:41,12:49:41,06:24:37,06:33:37,29.0,30.0,Sunday,2024-07-27,Monsoon
TRIP_628,MH-BUS-6,MUM_Route_A,STOP_2,CST,15:50:59,16:05:59,16:15:42,16:23:42,38.0,0.0,Friday,2024-08-18,HUMID
TRIP_629,MH-BUS-10,MUM_Route_E,STOP_6,Bandra,19:47:55,19:47:55,15:19:38,15:28:38,37.0,19.0,Wednesday,2024-06-05,Humid
TRIP_630,MH-BUS-8,MUM_Route_D,STOP_13,Vashi,04:15:39,04:20:39,18:22:13,,33.0,15.0,Thursday,2024-08-08,Humid
TRIP_631,MH-BUS-2,MUM_Route_B,STOP_9,Worli,10:51:50,11:00:50,05:40:44,05:40:44,33.0,33.0,Sunday,2024-06-18,Partly Cloudy
TRIP_632,MH-BUS-7,MUM_Route_C,STOP_5,Dadar,16:02:04,16:14:04,08:16:13,08:16:13,,5.0,Tuesday,2024-07-29,Sunny
TRIP_633,MH-BUS-1,MUM_Route_A,STOP_3,Borivali,05:42:06,05:37:06,06:31:52,06:34:52,29.0,13.0,Sunday,2024-06-09,Sunny
TRIP_634,MH-BUS-9,MUM_Route_A,STOP_1,CST,19:25:09,19:43:09,21:13:30,21:15:30,14.0,13.0,Thursday,2024-07-10,Monsoon
TRIP_635,MH-BUS-3,MUM_Route_A,STOP_5,Worli,19:31:18,19:36:18,17:37:07,17:41:07,27.0,41.0,Sunday,2024-08-22,Humid
TRIP_636,MH-BUS-10,MUM_Route_E,STOP_8,Kurla,07:20:16,07:39:16,22:33:43,22:35:43,53.0,43.0,Sunday,2024-07-22,Monsoon
TRIP_637,MH-BUS-10,MUM_Route_C,STOP_12,CST,14:19:04,14:18:04,00:37:11,00:46:11,37.0,8.0,Tuesday,2024-07-19,Rainy
TRIP_638,MH-BUS-9,MUM_Route_A,STOP_1,CST,18:33:35,18:51:35,15:29:20,15:37:20,24.0,0.0,Monday,2024-08-03,Cloudy
TRIP_639,MH-BUS-9,MUM_Route_B,STOP_1,Nerul,09:32:17,09:33:17,12:01:11,12:03:11,23.0,35.0,Monday,2024-07-25,Cloudy
TRIP_640,MH-BUS-1,MUM_Route_A,STOP_13,Belapur,01:14:25,01:24:25,08:46:02,08:48:02,16.0,3.0,Friday,2024-07-06,
TRIP_641,MH-BUS-10,MUM_Route_C,STOP_7,Lower Parel,11:51:21,12:01:21,17:44:21,17:54:21,50.0,18.0,Sunday,2024-06-14,Sunny
TRIP_642,MH-BUS-8,MUM_Route_A,STOP_5,Vashi,12:07:00,12:09:00,07:36:32,07:41:32,20.0,38.0,Tuesday,2024-07-22,Monsoon
TRIP_643,MH-BUS-2,MUM_Route_B,STOP_2,Dadar,23:01:01,23:02:01,08:30:48,,34.0,14.0,Tuesday,2024-07-21,Rainy
TRIP_644,MH-BUS-3,MUM_Route_D,STOP_20,Colaba,21:50:55,21:46:55,23:50:16,23:52:16,5.0,16.0,Sunday,2024-08-24,Cloudy
TRIP_645,MH-BUS-1,MUM_Route_E,STOP_15,Kharghar,15:29:39,15:29:39,23:28:14,23:29:14,,26.0,Wednesday,2024-06-07,Cloudy
TRIP_646,MH-BUS-5,MUM_Route_D,STOP_8,Powai,15:08:27,15:17:27,06:42:48,06:43:48,40.0,5.0,Wednesday,2024-07-14,Humid
TRIP_647,MH-BUS-7,MUM_Route_B,STOP_13,Thane,23:30:34,23:27:34,05:48:06,05:52:06,17.0,22.0,Saturday,2024-08-26,Rainy
TRIP_648,MH-BUS-3,MUM_Route_A,STOP_3,Colaba,20:14:35,08:24:35PM,19:24:46,19:27:46,48.0,43.0,Tuesday,2024-08-21,Humid
TRIP_649,MH-BUS-9,MUM_Route_C,STOP_13,CST,03:00:15,03:09:15,00:14:09,00:23:09,20.0,18.0,Thursday,2024-07-23,Humid
TRIP_650,MH-BUS-5,MUM_Route_E,STOP_5,Bandra,12:45:38,12:59:38,16:57:18,17:00:18,0.0,21.0,Thursday,2024-07-06,Rainy
TRIP_651,MH-BUS-1,MUM_Route_A,STOP_13,Borivali,03:34:05,03:34:05,22:24:40,22:31:40,30.0,40.0,Tuesday,2024-07-01,Humid
TRIP_652,MH-BUS-8,MUM_Route_A,STOP_18,Lower Parel,00:18:41,00:28:41,21:33:05,21:38:05,15.0,7.0,Monday,2024-06-01,Sunny
TRIP_653,MH-BUS-5,MUM_Route_D,STOP_1,CST,01:04:56,01:23:56,22:17:20,10:22:20PM,9.0,25.0,Wednesday,2024-08-09,Sunny
TRIP_654,MH-BUS-4,MUM_Route_B,STOP_14,Nerul,01:02:30,01:05:30,15:30:06,15:33:06,29.0,16.0,Saturday,2024-08-06,Monsoon
TRIP_655,MH-BUS-2,MUM_Route_E,STOP_14,Borivali,06:45:58,06:49:58,07:03:28,07:06:28,14.0,27.0,Tuesday,2024-08-18,Humid
TRIP_656,MH-BUS-7,MUM_Route_D,STOP_3,CST,12:53:44,13:10:44,04:35:33,04:39:33,14.0,30.0,Thursday,2024-06-20,Partly Cloudy
TRIP_657,MH-BUS-3,MUM_Route_D,STOP_4,Vashi,17:56:38,180038,17:36:44,17:45:44,28.0,28.0,Friday,2024-08-14,Rainy
TRIP_658,MH-BUS-9,MUM_Route_C,STOP_19,Worli,02:06:58,02:21:58,18:18:43,18:28:43,21.0,14.0,Friday,2024-08-05,partly cloudy
TRIP_659,MH-BUS-10,MUM_Route_E,STOP_14,Powai,17:55:36,18:05:36,09:58:11,09:59:11,21.0,1.0,Monday,2024-06-11,Humid
TRIP_660,MH-BUS-10,MUM_Route_E,STOP_19,Bandra,08:45:43,08:41:43,23:36:03,23:39:03,3.0,10.0,Thursday,2024-07-14,Partly Cloudy
TRIP_661,MH-BUS-10,MUM_Route_B,STOP_1,Churchgate,11:49:20,11:51:20,06:46:51,06:47:51,40.0,18.0,Monday,2024-06-12,Humid
TRIP_662,MH-BUS-2,MUM_Route_E,STOP_18,Dadar,19:31:18,19:27:18,06:37:11,06:44:11,21.0,4.0,Friday,2024-07-06,Sunny
TRIP_663,MH-BUS-5,MUM_Route_E,STOP_16,Churchgate,01:03:53,01:13:53,22:29:12,22:32:12,27.0,0.0,Wednesday,2024-07-28,Sunny
TRIP_664,MH-BUS-3,MUM_Route_E,STOP_15,Ghatkopar,07:06:09,07:02:09,15:17:26,15:27:26,12.0,34.0,Friday,2024-06-08,Monsoon
TRIP_665,MH-BUS-6,MUM_Route_A,STOP_9,Thane,18:42:03,18:49:03,03:31:46,03:35:46,46.0,25.0,Friday,2024-08-08,
TRIP_666,MH-BUS-6,MUM_Route_D,STOP_15,Mulund,09:10:07,09:10:07,13:33:22,13:40:22,19.0,19.0,Thursday,2024-08-04,Humid
TRIP_667,MH-BUS-4,MUM_Route_D,STOP_16,Kharghar,03:33:27,03:52:27,15:11:39,15:20:39,40.0,20.0,Wednesday,2024-08-31,Rainy
TRIP_668,MH-BUS-2,MUM_Route_A,STOP_5,Borivali,20:15:24,20:15:24,08:55:53,08:59:53,24.0,0.0,Monday,2024-06-13,Monsoon
TRIP_669,MH-BUS-6,MUM_Route_D,STOP_6,Worli,15:04:56,14:59:56,12:52:22,13:02:22,23.0,-2.0,Tuesday,2024-07-22,Monsoon
TRIP_670,MH-BUS-4,MUM_Route_C,STOP_8,Dadar,14:33:38,14:34:38,13:54:45,13:54:45,25.0,47.0,Friday,2024-08-01,
TRIP_671,MH-BUS-1,MUM_Route_A,STOP_2,Kharghar,17:35:02,17:30:02,15:46:47,15:53:47,13.0,14.0,Tuesday,2024-06-26,Cloudy
TRIP_672,MH-BUS-10,MUM_Route_D,STOP_9,Belapur,02:53:54,02:56:54,15:03:38,15:11:38,7.0,18.0,Monday,2024-06-20,Humid
TRIP_673,MH-BUS-5,MUM_Route_A,STOP_9,CST,09:06:09,09:21:09,03:56:57,04:03:57,60.0,50.0,Saturday,2024-06-16,Partly Cloudy
TRIP_674,MH-BUS-9,MUM_Route_A,STOP_11,Nerul,23:56:17,00:08:17,14:16:07,14:16:07,2.0,28.0,Wednesday,2024-06-27,Sunny
TRIP_675,MH-BUS-9,MUM_Route_C,STOP_8,Bandra,12:40:26,12:47:26,23:59:19,00:09:19,8.0,23.0,Friday,2024-08-24,Monsoon
TRIP_676,MH-BUS-3,MUM_Route_B,STOP_20,Worli,17:55:02,18:15:02,12:01:06,12:06:06,53.0,27.0,Tuesday,2024-07-10,Sunny
TRIP_677,MH-BUS-2,MUM_Route_A,STOP_15,Dadar,10:54:17,11:03:17,04:29:18,,30.0,14.0,Tuesday,2024-06-16,Monsoon
TRIP_678,MH-BUS-3,MUM_Route_D,STOP_18,CST,07:56:36,07:51:36,12:29:55,12:29:55,15.0,6.0,Tuesday,2024-06-27,Sunny
TRIP_679,MH-BUS-10,MUM_Route_D,STOP_9,Worli,00:49:24,01:09:24,17:09:24,17:18:24,36.0,0.0,Friday,2024-07-12,
TRIP_680,MH-BUS-6,MUM_Route_E,STOP_1,Mulund,16:50:44,,11:41:39,11:50:39,8.0,21.0,Saturday,2024-08-30,Humid
TRIP_681,MH-BUS-6,MUM_Route_E,STOP_12,Mulund,22:28:58,,21:11:29,21:20:29,31.0,4.0,Sunday,2024-07-31,Monsoon
TRIP_682,MH-BUS-10,MUM_Route_D,STOP_18,Powai,12:41:39,12:47:39,21:21:58,21:25:58,9.0,15.0,Thursday,2024-06-01,Humid
TRIP_683,MH-BUS-1,MUM_Route_A,STOP_8,Dadar,08:00:37,08:20:37,03:17:18,03:19:18,16.0,13.0,Saturday,2024-08-09,Humid
TRIP_684,MH-BUS-8,MUM_Route_E,STOP_11,Dadar,11:04:08,11:23:08,19:54:09,20:03:09,41.0,15.0,Monday,2024-08-14,Monsoon
TRIP_685,MH-BUS-2,MUM_Route_A,STOP_11,Bandra,11:26:54,11:44:54,14:59:44,15:07:44,10.0,46.0,Wednesday,2024-07-25,Partly Cloudy
TRIP_686,MH-BUS-10,MUM_Route_A,STOP_18,Ghatkopar,04:36:25,04:37:25,03:55:22,04:04:22,43.0,40.0,Thursday,2024-07-21,Monsoon
TRIP_687,MH-BUS-5,MUM_Route_C,STOP_4,Powai,18:20:40,18:20:40,07:50:22,07:58:22,7.0,0.0,Sunday,2024-06-06,Sunny
TRIP_688,MH-BUS-8,MUM_Route_C,STOP_16,Thane,09:26:24,09:44:24,20:23:03,20:29:03,16.0,43.0,Thursday,2024-08-19,Partly Cloudy
TRIP_689,MH-BUS-10,MUM_Route_B,STOP_16,Vashi,15:21:31,15:37:31,01:49:34,01:55:34,22.0,22.0,Friday,2024-07-30,Partly Cloudy
TRIP_690,MH-BUS-4,MUM_Route_D,STOP_2,Lower Parel,22:53:08,22:49:08,09:30:34,09:34:34,18.0,20.0,Wednesday,2024-08-17,Rainy
TRIP_691,MH-BUS-3,MUM_Route_E,STOP_3,Dadar,13:51:32,13:55:32,17:59:03,18:04:03,3.0,12.0,Tuesday,2024-07-25,Rainy
TRIP_692,MH-BUS-1,MUM_Route_D,STOP_11,Kharghar,14:59:11,15:00:11,00:17:13,00:27:13,15.0,14.0,Thursday,2024-08-11,Rainy
TRIP_693,MH-BUS-5,MUM_Route_D,STOP_15,Panvel,23:15:26,23:21:26,11:20:06,11:22:06,23.0,0.0,Sunday,2024-06-21,Cloudy
TRIP_694,MH-BUS-9,MUM_Route_C,STOP_9,Lower Parel,13:41:30,13:40:30,12:33:19,12:39:19,,0.0,Friday,2024-07-01,Rainy
TRIP_695,MH-BUS-6,MUM_Route_A,STOP_15,Nerul,21:05:59,21:06:59,23:13:28,23:20:28,38.0,14.0,Saturday,2024-07-20,Monsoon
TRIP_696,MH-BUS-8,MUM_Route_D,STOP_17,Chembur,08:14:51,08:09:51,09:29:52,09:39:52,16.0,4.0,Thursday,2024-08-28,Cloudy
TRIP_697,MH-BUS-9,MUM_Route_E,STOP_6,Kurla,16:22:30,16:36:30,01:25:10,01:34:10,43.0,0.0,Monday,2024-08-21,Sunny
TRIP_698,MH-BUS-7,MUM_Route_D,STOP_19,Powai,21:50:30,22:00:30,13:11:13,13:20:13,17.0,49.0,Thursday,2024-07-20,Partly Cloudy
TRIP_699,MH-BUS-4,MUM_Route_E,STOP_9,Dadar,07:47:10,08:06:10,17:18:04,17:27:04,46.0,38.0,Saturday,2024-07-21,Sunny
TRIP_700,MH-BUS-10,MUM_Route_E,STOP_7,CST,09:22:33,09:37:33,06:01:35,06:02:35,43.0,23.0,Saturday,2024-07-16,Sunny
TRIP_701,MH-BUS-10,MUM_Route_A,STOP_13,Vashi,16:47:07,16:43:07,09:50:20,09:52:20,34.0,6.0,Sunday,2024-07-10,Humid
TRIP_702,MH-BUS-2,MUM_Route_B,STOP_18,CST,00:37:33,00:33:33,19:41:38,19:41:38,0.0,21.0,Thursday,2024-07-18,Monsoon
TRIP_703,MH-BUS-2,MUM_Route_C,STOP_10,Kharghar,04:14:47,04:14:47,09:52:24,09:53:24,33.0,22.0,Thursday,2024-07-03,Rainy
TRIP_704,MH-BUS-1,MUM_Route_B,STOP_10,Chembur,02:53:15,02:55:15,08:13:54,08:14:54,16.0,17.0,Saturday,2024-06-03,Partly Cloudy
TRIP_705,MH-BUS-8,MUM_Route_A,STOP_3,Panvel,12:59:28,13:14:28,05:34:50,05:40:50,45.0,33.0,Wednesday,2024-08-08,Rainy
TRIP_706,MH-BUS-4,MUM_Route_D,STOP_12,Belapur,21:44:05,21:40:05,04:00:25,04:07:25,26.0,37.0,Saturday,2024-07-05,Humid
TRIP_707,MH-BUS-7,MUM_Route_B,STOP_10,Powai,23:50:04,23:45:04,02:38:32,02:41:32,19.0,14.0,Friday,2024-07-22,Monsoon
TRIP_708,MH-BUS-4,MUM_Route_C,STOP_1,Ghatkopar,06:22:29,,13:26:16,13:36:16,2.0,0.0,Sunday,2024-07-28,Humid
TRIP_709,MH-BUS-9,MUM_Route_A,STOP_1,Panvel,07:01:52,07:11:52,18:17:41,18:24:41,31.0,,Saturday,2024-08-27,Monsoon
TRIP_710,MH-BUS-2,MUM_Route_C,STOP_16,Dadar,16:07:36,04:24:36PM,03:25:36,03:25:36,0.0,30.0,Friday,2024-08-31,Sunny
TRIP_711,MH-BUS-8,MUM_Route_E,STOP_8,Chembur,12:07:41,12:15:41,04:18:48,04:18:48,3.0,17.0,Friday,2024-06-14,Rainy
TRIP_712,MH-BUS-9,MUM_Route_C,STOP_15,Worli,01:27:19,01:45:19,17:55:57,18:05:57,41.0,32.0,Tuesday,2024-08-24,Partly Cloudy
TRIP_713,MH-BUS-3,MUM_Route_C,STOP_13,Chembur,18:07:10,06:04:10PM,20:30:04,20:34:04,0.0,18.0,Friday,2024-07-29,Cloudy
TRIP_714,MH-BUS-5,MUM_Route_D,STOP_10,Powai,19:38:41,19:44:41,23:13:32,23:23:32,14.0,0.0,Friday,2024-07-09,Partly Cloudy
TRIP_715,MH-BUS-4,MUM_Route_E,STOP_8,Bandra,13:38:25,13:54:25,13:35:32,13:37:32,28.0,28.0,Thursday,2024-06-16,Cloudy
TRIP_716,MH-BUS-3,MUM_Route_B,STOP_13,Vashi,21:11:26,21:12:26,08:56:31,09:06:31,17.0,10.0,Thursday,2024-07-11,Partly Cloudy
TRIP_717,MH-BUS-8,MUM_Route_D,STOP_16,Colaba,01:51:30,01:51:30,09:40:11,09:46:11,43.0,32.0,Sunday,2024-07-30,Monsoon
TRIP_718,MH-BUS-5,MUM_Route_B,STOP_6,Bandra,15:43:44,16:03:44,23:48:05,23:54:05,29.0,30.0,Friday,2024-06-21,Humid
TRIP_719,MH-BUS-4,MUM_Route_C,STOP_1,Thane,00:12:00,00:28:00,17:50:00,18:00:00,8.0,6.0,Tuesday,2024-07-29,Sunny
TRIP_720,MH-BUS-5,MUM_Route_E,STOP_4,Powai,17:12:46,17:12:46,17:32:15,17:41:15,12.0,27.0,Wednesday,2024-06-14,Partly Cloudy
TRIP_721,MH-BUS-8,MUM_Route_D,STOP_10,Lower Parel,01:24:13,01:21:13,14:25:42,14:34:42,5.0,12.0,Thursday,2024-06-21,Monsoon
TRIP_722,MH-BUS-6,MUM_Route_A,STOP_10,Kurla,21:32:07,21:29:07,05:34:26,05:43:26,18.0,38.0,Friday,2024-07-17,
TRIP_723,MH-BUS-7,MUM_Route_C,STOP_2,Bandra,03:18:07,03:18:07,20:44:11,20:45:11,40.0,,Monday,2024-06-25,Monsoon
TRIP_724,MH-BUS-4,MUM_Route_D,STOP_2,Andheri,00:34:14,00:49:14,22:27:08,22:27:08,45.0,31.0,Thursday,2024-08-10,Monsoon
TRIP_725,MH-BUS-4,MUM_Route_B,STOP_19,Kharghar,15:04:00,15:14:00,04:16:45,04:17:45,22.0,0.0,Saturday,2024-08-14,Monsoon
TRIP_726,MH-BUS-6,MUM_Route_A,STOP_15,Chembur,23:37:08,23:53:08,02:00:52,02:07:52,41.0,8.0,Thursday,2024-07-14,Partly Cloudy
TRIP_727,MH-BUS-9,MUM_Route_C,STOP_9,Kurla,00:47:04,01:00:04,23:40:20,23:49:20,26.0,3.0,Friday,2024-08-19,Humid
TRIP_728,MH-BUS-5,MUM_Route_D,STOP_20,Mulund,15:48:26,15:47:26,15:16:56,,19.0,,Saturday,2024-08-17,Monsoon
TRIP_729,MH-BUS-6,MUM_Route_D,STOP_13,Dadar,10:42:16,11:02:16,14:20:51,14:24:51,27.0,33.0,Tuesday,2024-08-26,MONSOON
TRIP_730,MH-BUS-4,MUM_Route_C,STOP_5,Lower Parel,04:44:51,04:49:51,01:49:41,01:51:41,15.0,18.0,Sunday,2024-06-18,Rainy
TRIP_731,MH-BUS-3,MUM_Route_C,STOP_14,Borivali,12:08:17,12:24:17,19:28:19,193119,51.0,6.0,Friday,2024-07-07,Humid
TRIP_732,MH-BUS-7,MUM_Route_C,STOP_9,Dadar,02:47:46,,15:41:22,15:41:22,13.0,12.0,Saturday,2024-07-19,Cloudy
TRIP_733,MH-BUS-8,MUM_Route_E,STOP_10,Belapur,08:46:33,08:59:33,05:19:42,052842,59.0,0.0,Friday,2024-06-03,Partly Cloudy
TRIP_734,MH-BUS-9,MUM_Route_D,STOP_8,Powai,14:48:01,,08:59:53,08:59:53,64.0,0.0,Wednesday,2024-08-29,Monsoon
TRIP_735,MH-BUS-2,MUM_Route_E,STOP_3,Nerul,14:33:54,14:52:54,03:36:17,03:45:17,44.0,24.0,Monday,2024-08-09,Monsoon
TRIP_736,MH-BUS-10,MUM_Route_B,STOP_5,Vashi,08:19:07,08:30:07,11:35:17,11:45:17,27.0,43.0,Tuesday,2024-07-30,Rainy
TRIP_737,MH-BUS-9,MUM_Route_B,STOP_3,Kurla,00:27:14,00:39:14,12:10:13,12:10:13,27.0,17.0,Saturday,2024-08-13,Rainy
TRIP_738,MH-BUS-7,MUM_Route_E,STOP_5,Lower Parel,06:28:40,06:46:40,22:59:33,,31.0,-2.0,Thursday,2024-07-14,Humid
TRIP_739,MH-BUS-4,MUM_Route_A,STOP_1,Andheri,13:25:46,13:37:46,13:23:25,13:23:25,,12.0,Wednesday,2024-07-12,Humid
TRIP_740,MH-BUS-1,MUM_Route_D,STOP_17,Churchgate,15:06:18,,05:14:41,,35.0,0.0,Friday,2024-08-20,Rainy
TRIP_741,MH-BUS-7,MUM_Route_D,STOP_7,Powai,02:42:37,02:42:37,02:43:40,02:44:40,0.0,13.0,Wednesday,2024-06-02,Monsoon
TRIP_742,MH-BUS-2,MUM_Route_B,STOP_16,Nerul,19:33:19,19:53:19,12:36:00,12:45:00,33.0,16.0,Friday,2024-06-30,Humid
TRIP_743,MH-BUS-7,MUM_Route_B,STOP_19,Panvel,03:12:43,03:17:43,19:20:16,19:24:16,30.0,0.0,Wednesday,2024-07-30,Sunny
TRIP_744,MH-BUS-7,MUM_Route_C,STOP_9,CST,10:16:59,10:23:59,04:13:39,04:18:39,35.0,33.0,Friday,2024-08-31,Monsoon
TRIP_745,MH-BUS-4,MUM_Route_C,STOP_2,Worli,07:23:56,07:32:56,14:28:15,14:36:15,62.0,-2.0,Thursday,2024-07-19,Sunny
TRIP_746,MH-BUS-9,MUM_Route_D,STOP_5,Thane,18:36:36,18:40:36,09:58:17,10:04:17,3.0,2.0,Saturday,2024-08-02,Humid
TRIP_747,MH-BUS-1,MUM_Route_D,STOP_20,Borivali,10:26:42,10:45:42,17:17:09,17:18:09,36.0,16.0,Sunday,2024-08-02,Humid
TRIP_748,MH-BUS-2,MUM_Route_D,STOP_20,Mulund,02:01:58,02:19:58,10:39:05,,2.0,31.0,Tuesday,2024-08-22,Monsoon
TRIP_749,MH-BUS-3,MUM_Route_B,STOP_16,CST,11:26:39,11:25:39,19:24:51,19:24:51,40.0,29.0,Tuesday,2024-08-31,Partly Cloudy
TRIP_750,MH-BUS-8,MUM_Route_B,STOP_4,Andheri,23:51:28,00:02:28,22:07:58,22:16:58,32.0,34.0,Wednesday,2024-08-18,Partly Cloudy
TRIP_751,MH-BUS-4,MUM_Route_E,STOP_10,Dadar,05:41:27,05:53:27,01:25:06,01:32:06,49.0,34.0,Tuesday,2024-06-20,Monsoon
TRIP_752,MH-BUS-8,MUM_Route_A,STOP_11,Lower Parel,12:06:30,12:16:30,19:36:47,19:43:47,33.0,38.0,Sunday,2024-08-08,Humid
TRIP_753,MH-BUS-6,MUM_Route_C,STOP_1,Vashi,10:08:08,10:10:08,22:45:11,22:53:11,19.0,33.0,Monday,2024-06-15,Partly Cloudy
TRIP_754,MH-BUS-9,MUM_Route_B,STOP_20,Bandra,21:11:26,21:25:26,20:33:34,20:43:34,23.0,41.0,Sunday,2024-08-04,Monsoon
TRIP_755,MH-BUS-6,MUM_Route_C,STOP_14,Colaba,10:27:40,10:39:40,15:59:08,15:59:08,15.0,13.0,Sunday,2024-08-01,Humid
TRIP_756,MH-BUS-3,MUM_Route_A,STOP_18,Vashi,19:18:00,19:18:00,12:58:38,13:04:38,26.0,48.0,Tuesday,2024-08-09,Partly Cloudy
TRIP_757,MH-BUS-8,MUM_Route_D,STOP_13,Kurla,07:24:57,07:35:57,10:05:31,10:13:31,13.0,22.0,Wednesday,2024-08-13,Rainy
TRIP_758,MH-BUS-6,MUM_Route_D,STOP_16,Churchgate,13:52:05,13:47:05,13:57:28,14:06:28,6.0,0.0,Saturday,2024-07-25,Cloudy
TRIP_759,MH-BUS-3,MUM_Route_D,STOP_4,Borivali,18:14:58,18:27:58,05:02:45,05:10:45,6.0,7.0,Monday,2024-08-09,
TRIP_760,MH-BUS-3,MUM_Route_E,STOP_7,Lower Parel,02:37:21,02:48:21,22:17:59,22:23:59,21.0,23.0,Saturday,2024-08-22,Humid
TRIP_761,MH-BUS-9,MUM_Route_C,STOP_11,Vashi,20:37:53,20:54:53,04:49:53,04:49:53,12.0,44.0,Sunday,2024-07-09,Monsoon
TRIP_762,MH-BUS-3,MUM_Route_E,STOP_20,Thane,17:05:15,17:02:15,08:12:34,08:15:34,11.0,15.0,Friday,2024-06-14,Sunny
TRIP_763,MH-BUS-7,MUM_Route_B,STOP_11,Worli,21:21:10,21:18:10,00:59:19,01:03:19,18.0,33.0,Monday,2024-06-29,Rainy
TRIP_764,MH-BUS-4,MUM_Route_D,STOP_17,CST,13:15:29,13:33:29,18:25:16,,14.0,19.0,Tuesday,2024-07-03,Sunny
TRIP_765,MH-BUS-6,MUM_Route_E,STOP_7,Mulund,15:22:22,15:23:22,02:37:48,02:38:48,48.0,43.0,Friday,2024-08-26,Humid
TRIP_766,MH-BUS-5,MUM_Route_D,STOP_9,Kurla,18:24:27,18:25:27,08:01:53,08:10:53,,16.0,Sunday,2024-07-16,Rainy
TRIP_767,MH-BUS-2,MUM_Route_E,STOP_3,Bandra,23:59:57,23:58:57,20:49:26,20:55:26,35.0,,Sunday,2024-06-08,Partly Cloudy
TRIP_768,MH-BUS-7,MUM_Route_C,STOP_15,Powai,09:59:00,09:59:00,15:32:03,15:38:03,50.0,0.0,Sunday,2024-07-19,Rainy
TRIP_769,MH-BUS-2,MUM_Route_D,STOP_6,Vashi,08:45:01,08:56:01,17:28:14,17:30:14,0.0,23.0,Tuesday,2024-06-12,Partly Cloudy
TRIP_770,MH-BUS-3,MUM_Route_D,STOP_6,Panvel,02:43:29,02:45:29,10:35:43,10:35:43,11.0,0.0,Monday,2024-08-16,Rainy
TRIP_771,MH-BUS-6,MUM_Route_C,STOP_4,Mulund,16:15:42,16:30:42,19:36:46,19:43:46,43.0,22.0,Monday,2024-06-30,Sunny
TRIP_772,MH-BUS-5,MUM_Route_C,STOP_1,Vashi,05:32:58,05:37:58,08:00:42,08:01:42,19.0,55.0,Wednesday,2024-06-15,Humid
TRIP_773,MH-BUS-7,MUM_Route_E,STOP_20,Borivali,20:50:23,20:47:23,02:10:00,02:14:00,9.0,16.0,Thursday,2024-06-15,Monsoon
TRIP_774,MH-BUS-4,MUM_Route_C,STOP_15,Kharghar,20:33:26,20:41:26,00:24:12,00:27:12,13.0,29.0,Saturday,2024-06-30,Sunny
TRIP_775,MH-BUS-1,MUM_Route_C,STOP_20,Borivali,17:40:22,17:37:22,11:22:37,11:30:37,18.0,22.0,Tuesday,2024-08-28,Cloudy
TRIP_776,MH-BUS-10,MUM_Route_C,STOP_18,Mulund,16:34:37,16:39:37,06:05:16,06:05:16,22.0,11.0,Thursday,2024-08-23,Partly Cloudy
TRIP_777,MH-BUS-7,MUM_Route_C,STOP_6,Kharghar,05:46:16,05:54:16,16:33:46,16:42:46,30.0,0.0,Friday,2024-08-28,Rainy
TRIP_778,MH-BUS-4,MUM_Route_A,STOP_10,Nerul,11:24:31,11:39:31,10:54:51,11:00:51,44.0,35.0,Monday,2024-06-22,Humid
TRIP_779,MH-BUS-4,MUM_Route_A,STOP_14,Dadar,19:35:38,19:34:38,15:48:26,15:51:26,20.0,15.0,Friday,2024-06-05,Monsoon
TRIP_780,MH-BUS-4,MUM_Route_B,STOP_20,CST,04:29:12,04:44:12,16:46:10,16:54:10,36.0,,Friday,2024-08-25,Cloudy
TRIP_781,MH-BUS-10,MUM_Route_B,STOP_10,Andheri,19:47:33,19:43:33,03:25:40,03:32:40,17.0,44.0,Sunday,2024-08-11,Cloudy
TRIP_782,MH-BUS-2,MUM_Route_B,STOP_1,Bandra,19:04:36,19:07:36,05:10:42,05:16:42,18.0,2.0,Monday,2024-08-02,Partly Cloudy
TRIP_783,MH-BUS-3,MUM_Route_B,STOP_5,Andheri,05:41:41,05:49:41,23:48:09,23:57:09,18.0,32.0,Wednesday,2024-08-23,Partly Cloudy
TRIP_784,MH-BUS-7,MUM_Route_C,STOP_18,Borivali,12:37:07,12:34:07,16:34:06,16:38:06,23.0,4.0,Thursday,2024-06-06,Humid
TRIP_785,MH-BUS-6,MUM_Route_A,STOP_5,Andheri,00:11:28,00:22:28,16:45:30,16:53:30,12.0,29.0,Saturday,2024-07-22,Rainy
TRIP_786,MH-BUS-3,MUM_Route_D,STOP_9,Kharghar,08:32:40,08:47:40,04:56:51,05:01:51,43.0,35.0,Sunday,2024-07-06,Sunny
TRIP_787,MH-BUS-10,MUM_Route_C,STOP_18,Nerul,06:02:18,06:12:18,09:45:40,09:49:40,43.0,36.0,Monday,2024-08-17,Rainy
TRIP_788,MH-BUS-9,MUM_Route_B,STOP_13,Bandra,11:46:41,11:47:41,09:28:19,09:38:19,32.0,8.0,Friday,2024-08-09,PARTLY CLOUDY
TRIP_789,MH-BUS-7,MUM_Route_B,STOP_18,Worli,01:51:49,01:48:49,19:42:17,19:51:17,30.0,4.0,Tuesday,2024-08-15,Sunny
TRIP_790,MH-BUS-9,MUM_Route_C,STOP_17,Mulund,01:11:46,01:19:46,12:21:10,12:21:10,35.0,20.0,Wednesday,2024-08-02,Partly Cloudy
TRIP_791,MH-BUS-4,MUM_Route_D,STOP_20,Ghatkopar,21:43:49,21:46:49,03:25:42,,,10.0,Thursday,2024-08-11,Rainy
TRIP_792,MH-BUS-5,MUM_Route_D,STOP_10,Borivali,01:55:19,02:14:19,15:24:01,15:30:01,26.0,0.0,Saturday,2024-06-25,Monsoon
TRIP_793,MH-BUS-3,MUM_Route_C,STOP_16,Powai,03:21:03,03:35:03,03:04:40,03:05:40,0.0,0.0,Wednesday,2024-08-15,Humid
TRIP_794,MH-BUS-6,MUM_Route_B,STOP_12,Mulund,06:41:26,06:56:26,20:28:27,20:38:27,8.0,18.0,Sunday,2024-07-17,Sunny
TRIP_795,MH-BUS-7,MUM_Route_E,STOP_14,Mulund,08:11:48,08:16:48,01:05:04,01:09:04,22.0,16.0,Friday,2024-06-26,Partly Cloudy
TRIP_796,MH-BUS-2,MUM_Route_E,STOP_15,Lower Parel,12:35:43,12:53:43,12:37:01,,42.0,,Wednesday,2024-08-15,Monsoon
TRIP_797,MH-BUS-9,MUM_Route_E,STOP_19,Panvel,02:02:20,02:20:20,23:09:51,23:15:51,26.0,3.0,Wednesday,2024-07-15,Humid
TRIP_798,MH-BUS-5,MUM_Route_B,STOP_16,Bandra,07:48:21,07:48:21,14:09:19,14:17:19,23.0,35.0,Saturday,2024-06-07,Monsoon
TRIP_799,MH-BUS-9,MUM_Route_A,STOP_19,Borivali,06:17:18,06:29:18,10:44:29,10:47:29,6.0,15.0,Saturday,2024-07-08,Sunny
TRIP_800,MH-BUS-3,MUM_Route_C,STOP_7,Panvel,04:21:32,04:27:32,21:03:44,21:13:44,41.0,53.0,Tuesday,2024-07-15,Cloudy
TRIP_801,MH-BUS-10,MUM_Route_D,STOP_15,Kurla,04:57:20,04:58:20,02:06:39,02:09:39,,29.0,Wednesday,2024-08-18,
TRIP_802,MH-BUS-5,MUM_Route_D,STOP_11,Lower Parel,01:07:19,01:17:19,23:53:44,23:57:44,54.0,0.0,Monday,2024-08-07,Cloudy
TRIP_803,MH-BUS-8,MUM_Route_C,STOP_13,Bandra,14:15:43,14:32:43,13:39:29,13:40:29,29.0,39.0,Saturday,2024-07-31,Sunny
TRIP_804,MH-BUS-6,MUM_Route_A,STOP_18,Thane,20:15:18,20:28:18,03:03:24,03:09:24,44.0,20.0,Monday,2024-07-17,Monsoon
TRIP_805,MH-BUS-2,MUM_Route_A,STOP_20,Ghatkopar,00:31:48,00:45:48,15:11:15,15:13:15,40.0,20.0,Wednesday,2024-07-16,Partly Cloudy
TRIP_806,MH-BUS-10,MUM_Route_C,STOP_5,Nerul,11:20:56,11:23:56,03:06:25,03:14:25AM,36.0,4.0,Saturday,2024-06-05,Partly Cloudy
TRIP_807,MH-BUS-10,MUM_Route_B,STOP_17,Powai,21:24:28,09:19:28PM,13:43:20,13:47:20,16.0,25.0,Monday,2024-06-24,Partly Cloudy
TRIP_808,MH-BUS-1,MUM_Route_E,STOP_11,Dadar,03:24:11,03:19:11,10:55:18,11:05:18,34.0,23.0,Monday,2024-08-10,Humid
TRIP_809,MH-BUS-3,MUM_Route_D,STOP_2,Kharghar,04:53:50,05:12:50,23:42:25,23:51:25,17.0,14.0,Saturday,2024-08-08,Rainy
TRIP_810,MH-BUS-6,MUM_Route_A,STOP_2,Colaba,11:37:28,11:51:28,10:13:00,10:16:00,25.0,27.0,Tuesday,2024-06-23,Rainy
TRIP_811,MH-BUS-6,MUM_Route_A,STOP_14,Churchgate,14:41:50,14:49:50,14:18:21,14:19:21,6.0,,Monday,2024-06-14,Monsoon
TRIP_812,MH-BUS-8,MUM_Route_B,STOP_17,Vashi,07:10:40,07:18:40,18:40:45,18:45:45,37.0,23.0,Tuesday,2024-07-13,Sunny
TRIP_813,MH-BUS-10,MUM_Route_E,STOP_16,Nerul,09:21:07,09:37:07,09:08:43,09:16:43,12.0,8.0,Wednesday,2024-07-23,Sunny
TRIP_814,MH-BUS-1,MUM_Route_C,STOP_5,Nerul,21:03:41,09:15:41PM,08:57:19,09:03:19,,8.0,Friday,2024-07-21,Humid
TRIP_815,MH-BUS-4,MUM_Route_E,STOP_4,Churchgate,08:58:07,09:03:07,17:58:26,18:01:26,37.0,0.0,Saturday,2024-06-11,Sunny
TRIP_816,MH-BUS-8,MUM_Route_C,STOP_20,CST,23:37:10,23:45:10,18:41:16,,38.0,0.0,Wednesday,2024-07-11,Rainy
TRIP_817,MH-BUS-10,MUM_Route_D,STOP_15,Mulund,01:10:23,01:11:23,19:41:24,19:51:24,38.0,33.0,Saturday,2024-07-21,Sunny
TRIP_818,MH-BUS-8,MUM_Route_B,STOP_5,Mulund,20:22:19,20:34:19,10:05:36,10:11:36,30.0,29.0,Monday,2024-06-12,Rainy
TRIP_819,MH-BUS-4,MUM_Route_C,STOP_11,Chembur,10:33:57,10:45:57,20:40:14,20:47:14,23.0,21.0,Wednesday,2024-06-26,Humid
TRIP_820,MH-BUS-2,MUM_Route_B,STOP_8,Andheri,11:43:03,11:59:03,02:40:09,,21.0,0.0,Saturday,2024-06-07,Partly Cloudy
TRIP_821,MH-BUS-4,MUM_Route_E,STOP_14,Colaba,10:22:05,10:39:05,00:00:09,00:09:09,12.0,18.0,Monday,2024-06-13,Monsoon
TRIP_822,MH-BUS-8,MUM_Route_A,STOP_11,Dadar,18:20:07,18:38:07,13:25:04,13:28:04,,48.0,Wednesday,2024-08-19,Monsoon
TRIP_823,MH-BUS-7,MUM_Route_D,STOP_4,Powai,08:17:53,08:15:53,05:29:25,05:39:25,31.0,33.0,Saturday,2024-06-30,Sunny
TRIP_824,MH-BUS-1,MUM_Route_C,STOP_16,Ghatkopar,11:57:51,12:06:51,11:02:40,11:05:40,4.0,41.0,Sunday,2024-06-15,Monsoon
TRIP_825,MH-BUS-7,MUM_Route_C,STOP_17,Panvel,11:47:52,11:58:52,01:22:20,01:30:20,0.0,34.0,Monday,2024-08-28,Monsoon
TRIP_826,MH-BUS-9,MUM_Route_B,STOP_9,Belapur,06:18:13,06:18:13,15:35:01,15:41:01,7.0,0.0,Tuesday,2024-06-06,Cloudy
TRIP_827,MH-BUS-9,MUM_Route_B,STOP_17,Worli,22:36:14,22:32:14,10:41:50,10:49:50,27.0,39.0,Friday,2024-07-12,Monsoon
TRIP_828,MH-BUS-8,MUM_Route_C,STOP_19,Ghatkopar,06:32:51,06:37:51,13:28:03,13:36:03,15.0,20.0,Sunday,2024-08-20,Rainy
TRIP_829,MH-BUS-8,MUM_Route_A,STOP_17,Kurla,18:45:10,18:48:10,13:23:16,13:23:16,12.0,28.0,Sunday,2024-07-11,Partly Cloudy
TRIP_830,MH-BUS-9,MUM_Route_A,STOP_12,Worli,22:48:32,22:59:32,12:37:36,12:42:36,13.0,16.0,Friday,2024-08-27,Humid
TRIP_831,MH-BUS-9,MUM_Route_E,STOP_8,Andheri,06:44:24,06:56:24,23:11:04,23:20:04,66.0,0.0,Thursday,2024-07-18,Sunny
TRIP_832,MH-BUS-8,MUM_Route_B,STOP_9,CST,14:34:45,14:35:45,10:54:04,11:02:04,27.0,6.0,Saturday,2024-08-05,Partly Cloudy
TRIP_833,MH-BUS-5,MUM_Route_A,STOP_20,Kharghar,05:01:15,04:58:15,03:32:16,03:40:16,26.0,14.0,Monday,2024-08-11,Partly Cloudy
TRIP_834,MH-BUS-5,MUM_Route_C,STOP_9,Kurla,14:59:33,15:09:33,03:55:41,04:03:41,0.0,44.0,Thursday,2024-07-01,Sunny
TRIP_835,MH-BUS-3,MUM_Route_D,STOP_14,Colaba,06:36:18,06:45:18,02:35:48,02:45:48,10.0,51.0,Sunday,2024-06-15,Partly Cloudy
TRIP_836,MH-BUS-6,MUM_Route_D,STOP_1,Ghatkopar,15:36:56,,14:27:07,14:35:07,26.0,6.0,Tuesday,2024-07-11,Rainy
TRIP_837,MH-BUS-6,MUM_Route_D,STOP_19,Mulund,14:28:50,14:44:50,15:18:25,15:28:25,33.0,12.0,Tuesday,2024-08-18,Monsoon
TRIP_838,MH-BUS-9,MUM_Route_C,STOP_11,Bandra,17:41:33,,20:01:23,08:02:23PM,13.0,,Tuesday,2024-07-26,Rainy
TRIP_839,MH-BUS-3,MUM_Route_A,STOP_5,Powai,05:43:33,05:40:33,23:09:38,23:16:38,0.0,21.0,Sunday,2024-07-21,Rainy
TRIP_840,MH-BUS-1,MUM_Route_C,STOP_7,Dadar,01:31:17,01:51:17,09:17:50,09:21:50,36.0,13.0,Tuesday,2024-08-25,Humid
TRIP_841,MH-BUS-7,MUM_Route_C,STOP_4,Panvel,12:05:11,,22:03:25,22:05:25,54.0,7.0,Wednesday,2024-08-30,Sunny
TRIP_842,MH-BUS-4,MUM_Route_C,STOP_13,Mulund,23:53:41,23:57:41,16:29:21,16:39:21,41.0,31.0,Thursday,2024-08-25,Rainy
TRIP_843,MH-BUS-10,MUM_Route_A,STOP_2,Ghatkopar,11:55:18,12:06:18,05:01:56,05:04:56,25.0,5.0,Monday,2024-08-03,Partly Cloudy
TRIP_844,MH-BUS-2,MUM_Route_E,STOP_19,Kharghar,21:28:53,21:30:53,21:02:18,21:04:18,12.0,28.0,Tuesday,2024-08-30,Monsoon
TRIP_845,MH-BUS-1,MUM_Route_B,STOP_12,Worli,15:05:53,15:17:53,00:48:44,00:56:44,12.0,50.0,Wednesday,2024-08-20,Cloudy
TRIP_846,MH-BUS-10,MUM_Route_A,STOP_9,Mulund,03:43:35,03:56:35,17:05:09,17:11:09,,2.0,Monday,2024-08-21,Humid
TRIP_847,MH-BUS-10,MUM_Route_B,STOP_7,Kharghar,01:43:33,01:58:33,14:28:27,14:32:27,27.0,11.0,Sunday,2024-08-16,Cloudy
TRIP_848,MH-BUS-6,MUM_Route_B,STOP_20,Belapur,13:24:33,13:41:33,01:13:59,01:16:59,30.0,18.0,Monday,2024-07-25,Monsoon
TRIP_849,MH-BUS-6,MUM_Route_C,STOP_11,Kurla,16:06:13,16:13:13,15:47:00,15:54:00,64.0,0.0,Monday,2024-06-15,
TRIP_850,MH-BUS-3,MUM_Route_B,STOP_11,Colaba,02:08:20,02:24:20,15:21:22,,18.0,0.0,Saturday,2024-07-14,Rainy
TRIP_851,MH-BUS-8,MUM_Route_E,STOP_19,Borivali,14:09:24,14:15:24,23:55:54,00:02:54,0.0,13.0,Monday,2024-06-21,Rainy
TRIP_852,MH-BUS-1,MUM_Route_A,STOP_11,Worli,16:55:33,17:01:33,23:08:02,23:16:02,30.0,12.0,Tuesday,2024-06-01,Rainy
TRIP_853,MH-BUS-6,MUM_Route_B,STOP_5,Churchgate,23:10:31,23:10:31,04:07:43,04:12:43,24.0,16.0,Friday,2024-07-01,Humid
TRIP_854,MH-BUS-2,MUM_Route_C,STOP_6,Nerul,06:21:28,06:30:28,21:51:40,21:59:40,35.0,31.0,Saturday,2024-06-23,Cloudy
TRIP_855,MH-BUS-7,MUM_Route_C,STOP_18,Kharghar,00:01:22,00:01:22,17:09:46,17:19:46,14.0,17.0,Tuesday,2024-08-11,Monsoon
TRIP_856,MH-BUS-2,MUM_Route_A,STOP_1,Thane,21:38:12,21:50:12,03:33:21,03:36:21,5.0,28.0,Monday,2024-07-06,Sunny
TRIP_857,MH-BUS-3,MUM_Route_D,STOP_16,Vashi,15:02:54,15:07:54,00:42:01,00:45:01,50.0,47.0,Friday,2024-07-17,Humid
TRIP_858,MH-BUS-10,MUM_Route_D,STOP_5,Dadar,00:22:20,00:38:20,21:01:53,21:09:53,20.0,-2.0,Wednesday,2024-06-18,Cloudy
TRIP_859,MH-BUS-1,MUM_Route_D,STOP_11,Borivali,05:36:09,05:32:09,10:11:25,10:14:25,39.0,6.0,Saturday,2024-08-04,Partly Cloudy
TRIP_860,MH-BUS-3,MUM_Route_A,STOP_12,Nerul,22:25:15,22:44:15,00:44:35,00:51:35,,44.0,Wednesday,2024-08-08,Monsoon
TRIP_861,MH-BUS-7,MUM_Route_D,STOP_15,Bandra,23:19:57,23:34:57,00:08:40,00:11:40,24.0,7.0,Friday,2024-08-28,Partly Cloudy
TRIP_862,MH-BUS-3,MUM_Route_E,STOP_6,Kurla,10:57:17,11:17:17,23:54:04,23:58:04,47.0,11.0,Wednesday,2024-07-27,Humid
TRIP_863,MH-BUS-9,MUM_Route_E,STOP_8,Belapur,15:36:35,15:31:35,11:44:57,11:51:57,29.0,27.0,Wednesday,2024-08-17,Sunny
TRIP_864,MH-BUS-8,MUM_Route_C,STOP_5,Bandra,16:25:32,16:28:32,18:18:17,18:23:17,43.0,9.0,Monday,2024-07-18,Monsoon
TRIP_865,MH-BUS-3,MUM_Route_B,STOP_8,CST,21:38:28,21:48:28,07:36:34,,,25.0,Tuesday,2024-07-07,Monsoon
TRIP_866,MH-BUS-4,MUM_Route_C,STOP_14,Vashi,10:28:54,10:25:54,15:25:49,,-5.0,9.0,Wednesday,2024-08-26,Monsoon
TRIP_867,MH-BUS-8,MUM_Route_C,STOP_6,Borivali,11:38:21,11:35:21,23:15:02,23:16:02,51.0,23.0,Wednesday,2024-06-15,Humid
TRIP_868,MH-BUS-5,MUM_Route_D,STOP_19,Ghatkopar,20:40:47,20:39:47,06:22:46,06:26:46,27.0,26.0,Saturday,2024-06-21,Humid
TRIP_869,MH-BUS-10,MUM_Route_A,STOP_12,Lower Parel,19:52:27,20:01:27,23:59:13,00:07:13,40.0,20.0,Thursday,2024-07-01,Rainy
TRIP_870,MH-BUS-9,MUM_Route_A,STOP_18,Andheri,17:28:56,17:48:56,20:05:56,20:11:56,27.0,14.0,Saturday,2024-07-30,Monsoon
TRIP_871,MH-BUS-10,MUM_Route_E,STOP_5,Thane,21:08:50,21:27:50,01:19:39,01:23:39,49.0,47.0,Thursday,2024-08-21,Monsoon
TRIP_872,MH-BUS-3,MUM_Route_A,STOP_14,Bandra,00:09:04,00:04:04,13:23:14,13:26:14,28.0,3.0,Wednesday,2024-07-19,Partly Cloudy
TRIP_873,MH-BUS-7,MUM_Route_E,STOP_11,Dadar,19:34:23,19:39:23,18:44:06,18:53:06,10.0,17.0,Friday,2024-06-11,Sunny
TRIP_874,MH-BUS-9,MUM_Route_D,STOP_14,Kurla,22:20:42,22:17:42,23:08:40,,9.0,0.0,Wednesday,2024-07-08,Sunny
TRIP_875,MH-BUS-7,MUM_Route_A,STOP_15,Dadar,20:35:38,20:36:38,04:10:23,04:19:23,31.0,66.0,Friday,2024-08-02,Sunny
TRIP_876,MH-BUS-6,MUM_Route_B,STOP_13,CST,19:56:26,20:07:26,06:18:39,06:20:39,33.0,5.0,Sunday,2024-07-31,Rainy
TRIP_877,MH-BUS-9,MUM_Route_C,STOP_9,Dadar,16:08:00,16:27:00,23:16:01,23:23:01,5.0,21.0,Thursday,2024-06-24,Humid
TRIP_878,MH-BUS-7,MUM_Route_B,STOP_3,Borivali,05:08:12,05:04:12,01:09:06,01:14:06,37.0,11.0,Saturday,2024-06-05,Humid
TRIP_879,MH-BUS-2,MUM_Route_A,STOP_12,Dadar,08:52:05,09:09:05,08:21:19,08:28:19,28.0,6.0,Tuesday,2024-07-12,Partly Cloudy
TRIP_880,MH-BUS-8,MUM_Route_D,STOP_16,CST,17:43:43,17:40:43,22:15:46,22:18:46,17.0,30.0,Tuesday,2024-08-31,Humid
TRIP_881,MH-BUS-7,MUM_Route_D,STOP_11,Nerul,07:21:24,07:30:24,02:40:44,02:44:44,34.0,29.0,Friday,2024-07-06,Partly Cloudy
TRIP_882,MH-BUS-1,MUM_Route_D,STOP_19,Borivali,14:54:06,15:07:06,17:50:28,17:51:28,36.0,17.0,Saturday,2024-07-10,Monsoon
TRIP_883,MH-BUS-4,MUM_Route_E,STOP_16,Panvel,17:28:07,17:32:07,11:19:28,11:25:28,0.0,29.0,Sunday,2024-06-04,Partly Cloudy
TRIP_884,MH-BUS-2,MUM_Route_B,STOP_13,Borivali,04:34:59,04:45:59,02:09:55,02:17:55,20.0,26.0,Friday,2024-06-09,Rainy
TRIP_885,MH-BUS-5,MUM_Route_A,STOP_1,Thane,22:39:23,22:42:23,22:37:28,22:39:28,35.0,23.0,Thursday,2024-06-04,Partly Cloudy
TRIP_886,MH-BUS-9,MUM_Route_E,STOP_14,Chembur,05:15:39,05:29:39,06:23:06,06:32:06,26.0,14.0,Wednesday,2024-07-03,Partly Cloudy
TRIP_887,MH-BUS-2,MUM_Route_E,STOP_1,Ghatkopar,08:56:03,08:56:03,13:12:30,13:19:30,3.0,37.0,Wednesday,2024-07-07,Monsoon
TRIP_888,MH-BUS-2,MUM_Route_B,STOP_2,Panvel,17:42:29,18:01:29,21:29:31,21:35:31,21.0,13.0,Tuesday,2024-08-09,Monsoon
TRIP_889,MH-BUS-1,MUM_Route_D,STOP_14,Chembur,11:08:26,,05:55:42,05:59:42,31.0,52.0,Sunday,2024-06-14,Humid
TRIP_890,MH-BUS-10,MUM_Route_E,STOP_2,Thane,06:05:33,06:06:33,10:26:22,10:26:22,,31.0,Friday,2024-06-08,Cloudy
TRIP_891,MH-BUS-3,MUM_Route_B,STOP_19,Bandra,06:09:00,06:08:00,12:14:10,12:19:10,5.0,22.0,Friday,2024-08-29,Cloudy
TRIP_892,MH-BUS-3,MUM_Route_C,STOP_4,Ghatkopar,08:26:50,08:30:50,01:24:55,01:25:55,13.0,29.0,Thursday,2024-06-24,Monsoon
TRIP_893,MH-BUS-1,MUM_Route_E,STOP_17,Lower Parel,07:57:19,08:03:19,20:25:41,20:29:41,26.0,14.0,Wednesday,2024-07-01,Cloudy
TRIP_894,MH-BUS-4,MUM_Route_A,STOP_15,Panvel,11:05:06,11:08:06,03:18:28,03:25:28,21.0,13.0,Thursday,2024-07-14,Partly Cloudy
TRIP_895,MH-BUS-5,MUM_Route_B,STOP_10,Vashi,23:15:39,23:15:39,08:41:06,08:44:06,2.0,27.0,Monday,2024-08-21,Sunny
TRIP_896,MH-BUS-6,MUM_Route_A,STOP_3,Colaba,05:52:31,06:03:31,20:44:11,20:50:11,50.0,9.0,Thursday,2024-07-05,Rainy
TRIP_897,MH-BUS-10,MUM_Route_C,STOP_15,Panvel,04:36:26,04:47:26,09:05:20,09:13:20,15.0,26.0,Saturday,2024-06-06,Monsoon
TRIP_898,MH-BUS-8,MUM_Route_E,STOP_9,Vashi,09:06:51,09:08:51,06:02:43,06:10:43,12.0,17.0,Monday,2024-07-25,Cloudy
TRIP_899,MH-BUS-2,MUM_Route_B,STOP_9,Andheri,19:06:05,19:01:05,05:07:18,05:11:18,,20.0,Tuesday,2024-07-28,Partly Cloudy
TRIP_900,MH-BUS-2,MUM_Route_C,STOP_16,Dadar,04:57:30,05:14:30,16:12:14,16:18:14,30.0,9.0,Sunday,2024-07-24,Monsoon
TRIP_901,MH-BUS-6,MUM_Route_C,STOP_7,Thane,18:07:02,18:07:02,15:26:51,15:33:51,62.0,0.0,Thursday,2024-08-13,Partly Cloudy
TRIP_902,MH-BUS-2,MUM_Route_B,STOP_9,Panvel,06:00:49,06:06:49,01:46:30,01:56:30,,35.0,Tuesday,2024-06-10,Cloudy
TRIP_903,MH-BUS-5,MUM_Route_A,STOP_19,Nerul,21:08:28,21:27:28,06:57:16,07:07:16,18.0,33.0,Saturday,2024-07-11,Humid
TRIP_904,MH-BUS-1,MUM_Route_D,STOP_17,Bandra,12:45:11,13:03:11,06:02:27,06:11:27,,44.0,Thursday,2024-08-22,
TRIP_905,MH-BUS-8,MUM_Route_B,STOP_7,Kurla,20:08:03,20:12:03,11:07:53,11:16:53,,19.0,Thursday,2024-07-15,
TRIP_906,MH-BUS-1,MUM_Route_C,STOP_18,Ghatkopar,07:33:18,07:44:18,03:52:45,03:55:45,35.0,39.0,Tuesday,2024-08-14,Humid
TRIP_907,MH-BUS-4,MUM_Route_A,STOP_16,Thane,00:27:13,00:40:13,05:42:41,05:43:41,7.0,0.0,Saturday,2024-08-13,Humid
TRIP_908,MH-BUS-6,MUM_Route_A,STOP_11,Thane,14:46:02,14:57:02,07:49:37,075537,43.0,16.0,Sunday,2024-08-23,Partly Cloudy
TRIP_909,MH-BUS-6,MUM_Route_C,STOP_13,Churchgate,16:24:29,16:42:29,08:27:05,08:37:05,28.0,15.0,Friday,2024-08-30,Rainy
TRIP_910,MH-BUS-7,MUM_Route_A,STOP_1,Kharghar,07:29:28,07:40:28,12:04:50,12:09:50,15.0,6.0,Thursday,2024-07-19,Monsoon
TRIP_911,MH-BUS-1,MUM_Route_D,STOP_8,Vashi,01:46:42,,16:24:48,16:30:48,42.0,43.0,Saturday,2024-06-08,Sunny
TRIP_912,MH-BUS-5,MUM_Route_E,STOP_9,Kurla,10:30:38,10:26:38,23:14:38,11:19:38PM,30.0,26.0,Monday,2024-08-08,Humid
TRIP_913,MH-BUS-6,MUM_Route_C,STOP_15,Kharghar,07:23:04,07:19:04,05:05:59,05:05:59,6.0,22.0,Thursday,2024-07-01,Cloudy
TRIP_914,MH-BUS-8,MUM_Route_D,STOP_1,Powai,20:20:03,20:18:03,11:24:20,11:34:20,13.0,58.0,Saturday,2024-06-03,Monsoon
TRIP_915,MH-BUS-10,MUM_Route_C,STOP_4,Kurla,07:29:13,07:41:13,23:26:24,23:35:24,45.0,3.0,Thursday,2024-06-17,CLOUDY
TRIP_916,MH-BUS-3,MUM_Route_B,STOP_14,Colaba,03:04:26,03:09:26,12:08:11,12:08:11,22.0,,Thursday,2024-08-08,Rainy
TRIP_917,MH-BUS-6,MUM_Route_D,STOP_16,CST,20:48:40,21:08:40,06:38:28,06:45:28,42.0,0.0,Tuesday,2024-06-13,Humid
TRIP_918,MH-BUS-5,MUM_Route_B,STOP_18,Churchgate,16:26:41,16:42:41,01:16:05,01:19:05,34.0,9.0,Tuesday,2024-08-17,Humid
TRIP_919,MH-BUS-1,MUM_Route_C,STOP_20,Worli,08:38:16,08:38:16,03:01:19,03:02:19,56.0,18.0,Monday,2024-08-11,Cloudy
TRIP_920,MH-BUS-9,MUM_Route_D,STOP_1,Ghatkopar,06:19:51,06:19:51,04:26:11,04:31:11,53.0,1.0,Sunday,2024-07-27,Sunny
TRIP_921,MH-BUS-10,MUM_Route_E,STOP_5,Mulund,08:25:24,08:31:24,05:09:54,05:13:54,26.0,12.0,Monday,2024-08-22,
TRIP_922,MH-BUS-10,MUM_Route_A,STOP_8,Bandra,11:10:44,11:14:44,20:22:07,20:23:07,14.0,33.0,Wednesday,2024-08-26,Rainy
TRIP_923,MH-BUS-6,MUM_Route_D,STOP_11,Borivali,01:24:38,01:39:38,17:00:49,17:09:49,22.0,11.0,Saturday,2024-08-28,Cloudy
TRIP_924,MH-BUS-8,MUM_Route_C,STOP_17,Dadar,04:35:07,04:47:07,12:58:05,13:08:05,9.0,41.0,Thursday,2024-07-21,Humid
TRIP_925,MH-BUS-2,MUM_Route_C,STOP_20,Churchgate,18:11:48,18:10:48,21:29:52,21:32:52,5.0,27.0,Monday,2024-08-19,Partly Cloudy
TRIP_926,MH-BUS-8,MUM_Route_D,STOP_7,Bandra,12:21:38,12:33:38,02:24:46,02:33:46,8.0,6.0,Sunday,2024-08-14,Partly Cloudy
TRIP_927,MH-BUS-6,MUM_Route_E,STOP_9,Thane,06:36:28,06:38:28,06:44:23,06:48:23,24.0,,Wednesday,2024-07-17,Rainy
TRIP_928,MH-BUS-8,MUM_Route_B,STOP_5,Churchgate,03:32:00,03:37:00,13:22:13,13:23:13,,3.0,Thursday,2024-07-08,
TRIP_929,MH-BUS-6,MUM_Route_B,STOP_8,Thane,12:14:08,12:30:08,04:08:04,04:14:04,16.0,28.0,Friday,2024-07-25,Rainy
TRIP_930,MH-BUS-6,MUM_Route_E,STOP_5,Mulund,22:11:13,22:10:13,11:42:25,11:49:25,18.0,9.0,Monday,2024-08-03,Rainy
TRIP_931,MH-BUS-5,MUM_Route_D,STOP_13,Chembur,09:32:17,09:47:17,13:16:02,13:17:02,23.0,16.0,Thursday,2024-07-03,Sunny
TRIP_932,MH-BUS-2,MUM_Route_C,STOP_4,Vashi,11:33:17,11:32:17,00:07:42,00:12:42,26.0,22.0,Friday,2024-07-10,Monsoon
TRIP_933,MH-BUS-7,MUM_Route_D,STOP_9,Bandra,03:12:31,03:13:31,08:57:19,08:59:19,9.0,29.0,Sunday,2024-06-12,Rainy
TRIP_934,MH-BUS-3,MUM_Route_C,STOP_18,Ghatkopar,19:03:29,18:59:29,08:49:29,08:54:29,15.0,31.0,Sunday,2024-06-13,Rainy
TRIP_935,MH-BUS-5,MUM_Route_C,STOP_3,Churchgate,17:54:12,18:06:12,19:56:58,20:06:58,32.0,29.0,Wednesday,2024-06-05,Sunny
TRIP_936,MH-BUS-2,MUM_Route_A,STOP_7,Panvel,10:00:08,09:55:08,19:15:02,19:19:02,23.0,2.0,Thursday,2024-06-22,Cloudy
TRIP_937,MH-BUS-8,MUM_Route_D,STOP_13,Dadar,19:15:42,19:18:42,15:36:12,15:44:12,14.0,28.0,Monday,2024-07-25,Humid
TRIP_938,MH-BUS-9,MUM_Route_C,STOP_14,Dadar,03:35:40,03:37:40,17:49:55,17:53:55,6.0,44.0,Wednesday,2024-07-26,Partly Cloudy
TRIP_939,MH-BUS-8,MUM_Route_B,STOP_18,Kharghar,06:53:10,06:58:10,05:47:09,05:56:09,26.0,22.0,Monday,2024-08-22,Monsoon
TRIP_940,MH-BUS-2,MUM_Route_A,STOP_5,Belapur,22:42:32,22:45:32,20:24:03,20:34:03,31.0,33.0,Saturday,2024-06-22,Rainy
TRIP_941,MH-BUS-4,MUM_Route_B,STOP_11,Dadar,19:02:45,19:16:45,09:30:35,09:39:35,26.0,21.0,Wednesday,2024-08-26,SUNNY
TRIP_942,MH-BUS-7,MUM_Route_E,STOP_16,Vashi,19:55:46,20:12:46,03:02:21,03:11:21,0.0,48.0,Friday,2024-06-10,Monsoon
TRIP_943,MH-BUS-6,MUM_Route_A,STOP_8,Lower Parel,15:07:57,,00:37:23,00:47:23,20.0,36.0,Monday,2024-07-22,Rainy
TRIP_944,MH-BUS-9,MUM_Route_B,STOP_13,Andheri,05:55:35,06:01:35,17:40:04,17:44:04,20.0,37.0,Thursday,2024-08-13,Partly Cloudy
TRIP_945,MH-BUS-3,MUM_Route_B,STOP_7,Kurla,14:13:58,14:11:58,06:05:21,06:05:21,57.0,19.0,Tuesday,2024-06-20,Rainy
TRIP_946,MH-BUS-10,MUM_Route_A,STOP_10,Dadar,22:35:49,22:50:49,02:17:27,,4.0,16.0,Friday,2024-06-10,
TRIP_947,MH-BUS-10,MUM_Route_E,STOP_1,Colaba,15:50:39,15:49:39,05:34:06,05:35:06,44.0,14.0,Saturday,2024-07-18,rainy
TRIP_948,MH-BUS-3,MUM_Route_A,STOP_20,Vashi,14:16:19,14:24:19,05:33:43,05:41:43,18.0,0.0,Thursday,2024-07-09,Rainy
TRIP_949,MH-BUS-1,MUM_Route_E,STOP_7,Chembur,06:56:20,06:51:20,08:01:51,08:07:51,0.0,32.0,Sunday,2024-08-04,Sunny
TRIP_950,MH-BUS-1,MUM_Route_C,STOP_19,Belapur,12:05:59,12:08:59,17:23:18,17:26:18,12.0,10.0,Tuesday,2024-07-26,Cloudy
TRIP_951,MH-BUS-6,MUM_Route_D,STOP_7,Kharghar,06:39:19,06:40:19,04:26:54,04:31:54,39.0,35.0,Monday,2024-06-26,Monsoon
TRIP_952,MH-BUS-1,MUM_Route_C,STOP_20,Panvel,09:46:12,09:57:12,10:59:40,11:01:40,0.0,23.0,Thursday,2024-06-20,Sunny
TRIP_953,MH-BUS-7,MUM_Route_D,STOP_2,Andheri,16:30:17,16:37:17,01:38:48,01:42:48,-5.0,0.0,Wednesday,2024-07-21,Monsoon
TRIP_954,MH-BUS-6,MUM_Route_A,STOP_9,Kharghar,09:47:22,09:57:22,19:27:50,193750,14.0,,Tuesday,2024-06-16,monsoon
TRIP_955,MH-BUS-9,MUM_Route_D,STOP_12,Ghatkopar,20:42:09,20:41:09,13:36:41,13:45:41,34.0,0.0,Friday,2024-07-13,Rainy
TRIP_956,MH-BUS-3,MUM_Route_B,STOP_7,CST,00:11:20,00:09:20,06:17:12,06:22:12,19.0,23.0,Monday,2024-08-16,
TRIP_957,MH-BUS-10,MUM_Route_C,STOP_9,Nerul,04:52:45,05:02:45,08:45:43,,0.0,39.0,Sunday,2024-08-10,Humid
TRIP_958,MH-BUS-3,MUM_Route_B,STOP_13,Kurla,20:00:36,19:55:36,04:25:38,04:27:38,24.0,15.0,Monday,2024-07-29,Rainy
TRIP_959,MH-BUS-1,MUM_Route_E,STOP_4,Borivali,02:28:02,02:43:02,10:45:32,10:47:32,32.0,24.0,Sunday,2024-06-02,Monsoon
TRIP_960,MH-BUS-5,MUM_Route_B,STOP_16,Churchgate,04:55:18,05:12:18,05:31:38,05:33:38,21.0,18.0,Saturday,2024-07-24,Monsoon
TRIP_961,MH-BUS-3,MUM_Route_D,STOP_7,CST,16:09:42,16:24:42,17:21:25,17:24:25,28.0,12.0,Tuesday,2024-08-02,Humid
TRIP_962,MH-BUS-3,MUM_Route_A,STOP_17,Kurla,23:43:04,23:54:04,12:58:37,13:00:37,0.0,18.0,Friday,2024-08-02,Monsoon
TRIP_963,MH-BUS-7,MUM_Route_D,STOP_14,Andheri,23:43:37,23:48:37,05:09:42,05:10:42,21.0,30.0,Friday,2024-07-21,Humid
TRIP_964,MH-BUS-3,MUM_Route_C,STOP_6,Borivali,21:07:42,21:05:42,22:16:43,22:25:43,0.0,57.0,Wednesday,2024-06-16,Monsoon
TRIP_965,MH-BUS-9,MUM_Route_B,STOP_11,Powai,01:00:02,01:05:02,00:21:33,00:21:33,1.0,0.0,Tuesday,2024-08-25,Humid
TRIP_966,MH-BUS-8,MUM_Route_D,STOP_19,CST,19:39:45,19:53:45,07:02:40,07:12:40,54.0,23.0,Sunday,2024-07-26,Humid
TRIP_967,MH-BUS-9,MUM_Route_B,STOP_19,Kurla,05:02:08,05:02:08,11:43:44,11:46:44,9.0,3.0,Monday,2024-08-27,Cloudy
TRIP_968,MH-BUS-9,MUM_Route_C,STOP_18,Thane,16:08:04,16:03:04,06:45:41,06:47:41,30.0,13.0,Thursday,2024-07-28,Sunny
TRIP_969,MH-BUS-7,MUM_Route_E,STOP_14,Andheri,09:33:10,09:40:10,17:10:25,17:13:25,34.0,4.0,Sunday,2024-08-01,Monsoon
TRIP_970,MH-BUS-10,MUM_Route_D,STOP_1,Borivali,20:10:33,20:30:33,14:04:52,14:12:52,48.0,23.0,Tuesday,2024-06-27,Monsoon
TRIP_971,MH-BUS-9,MUM_Route_B,STOP_12,Kurla,22:12:04,22:27:04,00:22:50,00:25:50,6.0,20.0,Sunday,2024-08-31,Humid
TRIP_972,MH-BUS-8,MUM_Route_A,STOP_7,Vashi,23:48:10,00:07:10,08:21:33,,34.0,32.0,Tuesday,2024-08-27,Cloudy
TRIP_973,MH-BUS-9,MUM_Route_E,STOP_18,Thane,18:53:19,18:53:19,16:26:17,16:36:17,25.0,20.0,Saturday,2024-06-19,Rainy
TRIP_974,MH-BUS-5,MUM_Route_E,STOP_10,Kurla,17:03:46,,06:50:37,06:50:37,35.0,40.0,Friday,2024-07-02,Rainy
TRIP_975,MH-BUS-6,MUM_Route_E,STOP_20,Mulund,17:22:20,17:38:20,18:30:26,18:35:26,16.0,36.0,Tuesday,2024-06-02,Partly Cloudy
TRIP_976,MH-BUS-7,MUM_Route_C,STOP_20,Kurla,14:35:29,14:46:29,06:22:42,06:25:42,0.0,1.0,Thursday,2024-07-28,Sunny
TRIP_977,MH-BUS-2,MUM_Route_B,STOP_20,Powai,18:16:54,18:32:54,20:56:54,21:06:54,0.0,0.0,Saturday,2024-08-11,
TRIP_978,MH-BUS-4,MUM_Route_A,STOP_18,Borivali,10:33:40,10:33:40,09:36:41,09:43:41,30.0,23.0,Sunday,2024-07-16,Partly Cloudy
TRIP_979,MH-BUS-3,MUM_Route_D,STOP_5,Kurla,10:53:44,10:51:44,03:32:14,03:40:14,33.0,35.0,Sunday,2024-06-28,PARTLY CLOUDY
TRIP_980,MH-BUS-4,MUM_Route_E,STOP_15,Ghatkopar,03:22:19,03:31:19,10:59:57,11:02:57,9.0,0.0,Thursday,2024-07-10,Sunny
TRIP_981,MH-BUS-6,MUM_Route_E,STOP_17,Chembur,16:44:08,16:51:08,15:09:49,15:18:49,0.0,9.0,Thursday,2024-06-24,Sunny
TRIP_982,MH-BUS-3,MUM_Route_E,STOP_4,Kharghar,02:14:07,02:11:07,09:29:03,09:37:03,20.0,1.0,Friday,2024-07-27,Partly Cloudy
TRIP_983,MH-BUS-1,MUM_Route_A,STOP_19,Kharghar,15:22:51,15:31:51,01:11:57,01:21:57,18.0,12.0,Monday,2024-08-13,Humid
TRIP_984,MH-BUS-9,MUM_Route_E,STOP_1,Thane,16:28:29,16:38:29,10:30:41,10:30:41,22.0,0.0,Friday,2024-06-14,Cloudy
TRIP_985,MH-BUS-5,MUM_Route_E,STOP_19,Mulund,11:12:34,111534,14:32:21,14:34:21,5.0,0.0,Monday,2024-07-04,Rainy
TRIP_986,MH-BUS-9,MUM_Route_E,STOP_6,Colaba,12:50:27,12:51:27,04:03:59,04:11:59,25.0,22.0,Saturday,2024-06-30,Sunny
TRIP_987,MH-BUS-6,MUM_Route_A,STOP_1,Chembur,22:46:30,23:04:30,15:12:48,15:18:48,12.0,-2.0,Thursday,2024-06-15,rainy
TRIP_988,MH-BUS-1,MUM_Route_E,STOP_6,Panvel,20:09:12,20:23:12,09:03:14,09:07:14,35.0,47.0,Wednesday,2024-06-06,Rainy
TRIP_989,MH-BUS-3,MUM_Route_B,STOP_2,Ghatkopar,12:09:12,12:21:12,09:10:21,09:15:21,43.0,7.0,Wednesday,2024-07-07,Rainy
TRIP_990,MH-BUS-7,MUM_Route_C,STOP_6,Vashi,22:34:58,,11:13:57,11:20:57,44.0,9.0,Tuesday,2024-06-24,Sunny
TRIP_991,MH-BUS-5,MUM_Route_A,STOP_14,Belapur,21:47:56,22:05:56,11:39:57,11:44:57,36.0,41.0,Sunday,2024-08-10,
TRIP_992,MH-BUS-10,MUM_Route_B,STOP_12,Dadar,08:21:35,08:33:35,17:19:04,17:22:04,34.0,25.0,Wednesday,2024-06-19,Humid
TRIP_993,MH-BUS-5,MUM_Route_A,STOP_7,Kharghar,08:49:58,,17:00:43,17:09:43,32.0,36.0,Wednesday,2024-06-12,Sunny
TRIP_994,MH-BUS-1,MUM_Route_A,STOP_11,Borivali,09:01:39,09:17:39,21:26:47,21:29:47,25.0,27.0,Saturday,2024-06-24,Humid
TRIP_995,MH-BUS-10,MUM_Route_C,STOP_18,Worli,16:13:39,16:26:39,10:58:24,11:06:24,24.0,0.0,Monday,2024-07-23,Monsoon
TRIP_996,MH-BUS-10,MUM_Route_A,STOP_3,Kharghar,19:18:06,19:16:06,05:41:48,05:46:48,-5.0,6.0,Friday,2024-08-30,Rainy
TRIP_997,MH-BUS-10,MUM_Route_A,STOP_15,Worli,23:02:11,23:04:11,14:57:03,14:58:03,49.0,49.0,Tuesday,2024-08-07,monsoon
TRIP_998,MH-BUS-10,MUM_Route_C,STOP_19,Belapur,01:30:37,01:37:37,01:55:28,01:55:28,30.0,27.0,Sunday,2024-06-09,Humid
TRIP_999,MH-BUS-10,MUM_Route_B,STOP_15,Belapur,22:36:21,22:36:21,02:09:12,02:15:12,12.0,4.0,Saturday,2024-08-25,Rainy
TRIP_1000,MH-BUS-2,MUM_Route_B,STOP_16,Bandra,22:47:46,22:57:46,19:05:34,19:10:34,14.0,29.0,Friday,2024-06-03,Humid
TRIP_1001,MH-BUS-3,MUM_Route_A,STOP_10,CST,16:07:33,16:08:33,18:05:26,18:07:26,13.0,1.0,Wednesday,2024-06-25,Partly Cloudy
TRIP_1002,MH-BUS-2,MUM_Route_C,STOP_17,Thane,06:01:40,06:09:40,14:06:24,14:06:24,25.0,7.0,Monday,2024-08-22,Partly Cloudy
TRIP_1003,MH-BUS-8,MUM_Route_A,STOP_3,Bandra,03:07:03,03:27:03,17:40:33,17:42:33,17.0,6.0,Saturday,2024-06-22,Rainy
TRIP_1004,MH-BUS-4,MUM_Route_D,STOP_16,Kurla,23:27:26,23:46:26,19:13:22,19:13:22,27.0,0.0,Friday,2024-08-05,Humid
TRIP_1005,MH-BUS-7,MUM_Route_E,STOP_14,Vashi,13:16:37,13:14:37,04:45:41,04:53:41,38.0,42.0,Wednesday,2024-08-14,Cloudy
TRIP_1006,MH-BUS-1,MUM_Route_D,STOP_19,Kharghar,10:02:41,10:06:41,03:10:32,03:19:32,59.0,18.0,Wednesday,2024-08-06,Cloudy
TRIP_1007,MH-BUS-9,MUM_Route_D,STOP_13,CST,01:51:25,02:05:25,12:26:09,12:28:09,40.0,23.0,Friday,2024-07-28,Rainy
TRIP_1008,MH-BUS-6,MUM_Route_C,STOP_19,Dadar,02:04:02,02:13:02,16:21:30,16:30:30,18.0,7.0,Sunday,2024-06-14,Rainy
TRIP_1009,MH-BUS-7,MUM_Route_D,STOP_7,Thane,08:03:22,08:02:22,04:17:52,04:20:52,29.0,29.0,Monday,2024-06-09,
TRIP_1010,MH-BUS-4,MUM_Route_C,STOP_7,Andheri,04:35:16,04:38:16,14:37:25,14:42:25,42.0,21.0,Monday,2024-06-22,Sunny
TRIP_1011,MH-BUS-2,MUM_Route_B,STOP_14,Bandra,13:12:23,13:10:23,07:42:01,07:49:01,7.0,6.0,Wednesday,2024-08-25,Partly Cloudy
TRIP_1012,MH-BUS-2,MUM_Route_D,STOP_17,Nerul,14:47:02,145802,22:20:20,22:22:20,42.0,19.0,Wednesday,2024-07-23,Partly Cloudy
TRIP_1013,MH-BUS-6,MUM_Route_E,STOP_1,Andheri,11:59:37,11:57:37,19:50:21,07:53:21PM,34.0,37.0,Tuesday,2024-08-15,Sunny
TRIP_1014,MH-BUS-3,MUM_Route_E,STOP_11,Thane,14:59:16,15:07:16,07:36:50,07:37:50,27.0,0.0,Friday,2024-07-30,Partly Cloudy
TRIP_1015,MH-BUS-4,MUM_Route_C,STOP_9,Vashi,03:31:07,03:50:07,06:36:14,06:43:14,22.0,11.0,Thursday,2024-08-30,Monsoon
TRIP_1016,MH-BUS-7,MUM_Route_B,STOP_10,Mulund,08:10:41,08:22:41,12:19:51,12:24:51,5.0,20.0,Sunday,2024-07-26,Rainy
TRIP_1017,MH-BUS-9,MUM_Route_D,STOP_19,Belapur,12:22:10,12:38:10,11:06:51,11:10:51,41.0,38.0,Monday,2024-06-16,Sunny
TRIP_1018,MH-BUS-3,MUM_Route_A,STOP_17,Thane,04:03:34,04:12:34,22:56:15,23:01:15,14.0,27.0,Friday,2024-07-28,Rainy
TRIP_1019,MH-BUS-2,MUM_Route_D,STOP_10,Bandra,19:43:03,20:02:03,15:21:57,15:28:57,19.0,18.0,Thursday,2024-07-13,Monsoon
TRIP_1020,MH-BUS-8,MUM_Route_C,STOP_3,Mulund,06:13:50,06:26:50,19:37:06,19:38:06,16.0,13.0,Wednesday,2024-07-12,Rainy
TRIP_1021,MH-BUS-8,MUM_Route_A,STOP_18,Andheri,22:16:54,22:29:54,22:02:58,22:05:58,15.0,24.0,Monday,2024-07-02,Cloudy
TRIP_1022,MH-BUS-7,MUM_Route_C,STOP_14,Vashi,00:48:15,00:59:15,04:57:23,05:02:23,30.0,0.0,Saturday,2024-08-15,Monsoon
TRIP_1023,MH-BUS-2,MUM_Route_E,STOP_4,Kurla,22:13:16,22:15:16,17:27:28,17:29:28,21.0,26.0,Sunday,2024-08-18,Sunny
TRIP_1024,MH-BUS-1,MUM_Route_B,STOP_8,CST,22:57:16,231016,01:03:01,01:06:01,29.0,23.0,Friday,2024-08-12,Sunny
TRIP_1025,MH-BUS-7,MUM_Route_A,STOP_1,Vashi,00:54:28,01:14:28,15:46:21,15:54:21,1.0,20.0,Saturday,2024-06-26,Sunny
TRIP_1026,MH-BUS-2,MUM_Route_C,STOP_17,Vashi,06:22:55,06:31:55,13:53:40,,19.0,15.0,Wednesday,2024-08-11,Humid
TRIP_1027,MH-BUS-9,MUM_Route_D,STOP_3,Colaba,00:01:26,00:01:26,00:45:41,00:45:41,30.0,23.0,Thursday,2024-08-11,Sunny
TRIP_1028,MH-BUS-7,MUM_Route_E,STOP_18,Ghatkopar,06:15:31,06:22:31,04:45:46,04:48:46,47.0,10.0,Saturday,2024-08-11,Cloudy
TRIP_1029,MH-BUS-1,MUM_Route_E,STOP_3,Powai,15:18:25,15:13:25,09:20:32,09:21:32,22.0,5.0,Thursday,2024-06-13,
TRIP_1030,MH-BUS-1,MUM_Route_C,STOP_19,Powai,08:35:09,08:55:09,12:14:00,12:21:00,33.0,0.0,Friday,2024-08-27,Cloudy
TRIP_1031,MH-BUS-8,MUM_Route_B,STOP_4,Powai,11:53:08,11:59:08,05:02:28,05:02:28,33.0,20.0,Monday,2024-07-06,Sunny
TRIP_1032,MH-BUS-4,MUM_Route_A,STOP_1,Churchgate,03:57:00,03:52:00,13:21:04,13:23:04,3.0,12.0,Wednesday,2024-06-13,Humid
TRIP_1033,MH-BUS-4,MUM_Route_D,STOP_20,Churchgate,04:54:07,04:54:07,00:31:43,00:36:43,59.0,4.0,Wednesday,2024-06-03,Sunny
TRIP_1034,MH-BUS-7,MUM_Route_B,STOP_10,Dadar,23:19:58,23:27:58,19:27:08,,3.0,15.0,Thursday,2024-08-20,Cloudy
TRIP_1035,MH-BUS-8,MUM_Route_A,STOP_7,Panvel,09:45:56,09:55:56,16:27:26,16:35:26,21.0,38.0,Thursday,2024-06-07,Monsoon
TRIP_1036,MH-BUS-5,MUM_Route_A,STOP_3,Thane,17:04:06,17:02:06,03:15:59,03:17:59,1.0,14.0,Saturday,2024-08-10,Sunny
TRIP_1037,MH-BUS-7,MUM_Route_A,STOP_15,Nerul,05:19:11,05:35:11,10:10:49,10:11:49,49.0,34.0,Monday,2024-06-29,Monsoon
TRIP_1038,MH-BUS-9,MUM_Route_A,STOP_8,Kurla,04:50:04,,07:35:17,07:36:17,18.0,1.0,Monday,2024-06-10,Monsoon
TRIP_1039,MH-BUS-6,MUM_Route_A,STOP_11,Kurla,21:39:11,21:57:11,20:57:36,21:06:36,13.0,10.0,Monday,2024-07-15,Sunny
TRIP_1040,MH-BUS-1,MUM_Route_C,STOP_3,CST,08:01:30,08:03:30,13:51:14,13:54:14,11.0,26.0,Sunday,2024-08-27,Cloudy
TRIP_1041,MH-BUS-3,MUM_Route_A,STOP_10,Chembur,21:55:42,22:02:42,21:53:23,21:58:23,35.0,12.0,Friday,2024-06-17,Cloudy
TRIP_1042,MH-BUS-8,MUM_Route_A,STOP_9,Nerul,08:08:13,08:26:13,20:29:21,20:31:21,8.0,0.0,Tuesday,2024-08-26,Partly Cloudy
TRIP_1043,MH-BUS-5,MUM_Route_A,STOP_12,Powai,12:15:19,12:10:19,16:01:43,,20.0,21.0,Thursday,2024-06-06,
TRIP_1044,MH-BUS-9,MUM_Route_B,STOP_20,Dadar,18:36:51,18:56:51,08:26:06,08:34:06,0.0,28.0,Sunday,2024-06-25,Sunny
TRIP_1045,MH-BUS-3,MUM_Route_E,STOP_7,Mulund,18:06:04,18:15:04,19:12:11,19:14:11,14.0,7.0,Tuesday,2024-06-04,Humid
TRIP_1046,MH-BUS-9,MUM_Route_E,STOP_15,Andheri,16:09:06,16:23:06,16:41:03,16:45:03,23.0,20.0,Saturday,2024-08-04,Rainy
TRIP_1047,MH-BUS-5,MUM_Route_D,STOP_13,Lower Parel,16:57:41,05:07:41PM,03:34:44,03:41:44,28.0,28.0,Wednesday,2024-07-03,Partly Cloudy
TRIP_1048,MH-BUS-2,MUM_Route_A,STOP_19,Dadar,15:16:14,15:32:14,18:24:17,18:29:17,31.0,28.0,Monday,2024-06-18,Humid
TRIP_1049,MH-BUS-1,MUM_Route_A,STOP_16,CST,12:31:41,12:31:41,20:01:37,08:07:37PM,39.0,23.0,Thursday,2024-08-05,Rainy
TRIP_1050,MH-BUS-7,MUM_Route_C,STOP_18,Kurla,11:15:26,11:31:26,04:18:31,04:24:31,4.0,26.0,Tuesday,2024-08-11,Cloudy
TRIP_1051,MH-BUS-10,MUM_Route_B,STOP_8,Worli,20:30:50,20:48:50,05:15:15,,35.0,45.0,Friday,2024-08-11,Partly Cloudy
TRIP_1052,MH-BUS-1,MUM_Route_C,STOP_13,Mulund,00:14:30,00:31:30,23:04:21,23:06:21,13.0,35.0,Saturday,2024-08-28,
TRIP_1053,MH-BUS-4,MUM_Route_D,STOP_1,Ghatkopar,22:57:26,23:08:26,23:50:33,23:50:33,43.0,53.0,Wednesday,2024-06-17,Monsoon
TRIP_1054,MH-BUS-5,MUM_Route_C,STOP_13,CST,05:26:08,05:24:08,22:33:07,22:33:07,44.0,19.0,Sunday,2024-06-09,Humid
TRIP_1055,MH-BUS-7,MUM_Route_E,STOP_8,Ghatkopar,06:41:22,06:40:22,10:55:03,11:05:03,25.0,0.0,Thursday,2024-08-26,Humid
TRIP_1056,MH-BUS-2,MUM_Route_B,STOP_18,Bandra,04:36:34,04:53:34,15:42:28,15:44:28,,16.0,Saturday,2024-07-01,Rainy
TRIP_1057,MH-BUS-5,MUM_Route_D,STOP_15,Belapur,18:40:43,18:52:43,01:31:51,01:33:51,15.0,0.0,Thursday,2024-08-30,Sunny
TRIP_1058,MH-BUS-7,MUM_Route_D,STOP_9,Kurla,13:46:34,14:06:34,01:09:57,01:10:57,8.0,39.0,Saturday,2024-06-04,Cloudy
TRIP_1059,MH-BUS-5,MUM_Route_E,STOP_15,CST,22:26:36,22:42:36,10:02:46,10:02:46,16.0,18.0,Wednesday,2024-07-18,Cloudy
TRIP_1060,MH-BUS-10,MUM_Route_C,STOP_16,Lower Parel,21:47:31,21:53:31,01:13:22,01:20:22,17.0,-2.0,Thursday,2024-08-19,Rainy
TRIP_1061,MH-BUS-7,MUM_Route_B,STOP_13,Mulund,21:48:54,21:48:54,07:59:33,08:08:33,25.0,45.0,Sunday,2024-08-17,Monsoon
TRIP_1062,MH-BUS-2,MUM_Route_A,STOP_3,Nerul,05:08:27,05:04:27,16:42:19,16:50:19,25.0,0.0,Saturday,2024-07-15,Sunny
TRIP_1063,MH-BUS-7,MUM_Route_E,STOP_18,Kharghar,15:33:48,15:39:48,19:21:06,19:22:06,25.0,11.0,Wednesday,2024-08-15,Rainy
TRIP_1064,MH-BUS-9,MUM_Route_C,STOP_3,Dadar,11:34:33,11:53:33,01:38:33,01:44:33,9.0,0.0,Wednesday,2024-07-30,Partly Cloudy
TRIP_1065,MH-BUS-5,MUM_Route_D,STOP_17,Powai,00:14:57,00:28:57,09:10:41,09:15:41,15.0,33.0,Thursday,2024-06-22,Monsoon
TRIP_1066,MH-BUS-8,MUM_Route_A,STOP_11,Bandra,18:25:18,18:39:18,22:26:32,22:28:32,21.0,9.0,Monday,2024-08-17,Partly Cloudy
TRIP_1067,MH-BUS-4,MUM_Route_C,STOP_7,Ghatkopar,08:40:06,08:38:06,17:37:02,17:40:02,0.0,33.0,Saturday,2024-08-30,Monsoon
TRIP_1068,MH-BUS-6,MUM_Route_C,STOP_15,Kharghar,08:22:15,08:22:15,09:02:48,,,40.0,Monday,2024-08-29,Partly Cloudy
TRIP_1069,MH-BUS-6,MUM_Route_A,STOP_17,Borivali,12:38:52,12:36:52,09:32:17,09:42:17,23.0,29.0,Tuesday,2024-06-14,Monsoon
TRIP_1070,MH-BUS-10,MUM_Route_E,STOP_9,CST,11:36:43,11:49:43,14:16:51,14:17:51,2.0,11.0,Monday,2024-07-17,Partly Cloudy
TRIP_1071,MH-BUS-10,MUM_Route_C,STOP_8,Andheri,13:24:02,13:20:02,18:40:24,18:43:24,34.0,43.0,Monday,2024-06-06,Partly Cloudy
TRIP_1072,MH-BUS-4,MUM_Route_E,STOP_18,Mulund,10:35:41,10:34:41,03:30:50,03:34:50,32.0,19.0,Friday,2024-06-04,Humid
TRIP_1073,MH-BUS-10,MUM_Route_B,STOP_7,Colaba,22:37:27,22:57:27,23:50:43,23:59:43,48.0,0.0,Tuesday,2024-08-05,Cloudy
TRIP_1074,MH-BUS-1,MUM_Route_A,STOP_9,Churchgate,22:55:22,23:03:22,09:36:05,,42.0,6.0,Friday,2024-07-10,Monsoon
TRIP_1075,MH-BUS-9,MUM_Route_E,STOP_17,Dadar,09:09:14,09:25:14,23:00:53,23:06:53,9.0,11.0,Saturday,2024-08-25,Rainy
TRIP_1076,MH-BUS-5,MUM_Route_E,STOP_15,Andheri,06:42:53,06:43:53,10:25:32,10:25:32,7.0,0.0,Wednesday,2024-08-18,Cloudy
TRIP_1077,MH-BUS-10,MUM_Route_E,STOP_19,Worli,16:55:04,17:06:04,08:02:46,08:06:46,,29.0,Sunday,2024-07-21,Monsoon
TRIP_1078,MH-BUS-10,MUM_Route_D,STOP_1,Ghatkopar,22:53:57,22:53:57,09:41:30,094930,40.0,0.0,Monday,2024-07-03,Cloudy
TRIP_1079,MH-BUS-9,MUM_Route_A,STOP_6,Dadar,16:39:44,,13:26:30,13:26:30,23.0,15.0,Wednesday,2024-06-15,Humid
TRIP_1080,MH-BUS-10,MUM_Route_D,STOP_12,Chembur,09:25:41,09:39:41,13:24:05,13:34:05,9.0,17.0,Friday,2024-06-07,cloudy
TRIP_1081,MH-BUS-2,MUM_Route_A,STOP_3,CST,17:37:14,,12:06:03,12:13:03,24.0,25.0,Monday,2024-06-16,Humid
TRIP_1082,MH-BUS-3,MUM_Route_A,STOP_3,Bandra,16:36:22,16:34:22,09:50:54,09:58:54,17.0,31.0,Thursday,2024-07-07,Monsoon
TRIP_1083,MH-BUS-5,MUM_Route_D,STOP_16,Kharghar,19:14:51,19:14:51,08:29:04,08:36:04,39.0,7.0,Saturday,2024-08-10,
TRIP_1084,MH-BUS-7,MUM_Route_B,STOP_18,Borivali,14:13:11,14:19:11,02:49:52,02:58:52,34.0,21.0,Saturday,2024-06-21,Monsoon
TRIP_1085,MH-BUS-3,MUM_Route_A,STOP_8,Kharghar,23:21:50,23:20:50,11:54:54,115954,34.0,50.0,Monday,2024-08-20,Sunny
TRIP_1086,MH-BUS-4,MUM_Route_B,STOP_9,Worli,07:34:51,07:29:51,10:26:47,10:33:47,,13.0,Thursday,2024-08-21,Rainy
TRIP_1087,MH-BUS-2,MUM_Route_E,STOP_20,Belapur,03:22:16,03:30:16,09:19:01,09:23:01,40.0,27.0,Monday,2024-08-01,Monsoon
TRIP_1088,MH-BUS-5,MUM_Route_D,STOP_9,Lower Parel,04:58:33,05:01:33,11:24:21,11:24:21,41.0,55.0,Wednesday,2024-08-12,Partly Cloudy
TRIP_1089,MH-BUS-9,MUM_Route_B,STOP_12,Kharghar,07:10:15,07:18:15,15:23:57,15:27:57,21.0,30.0,Thursday,2024-06-06,Cloudy
TRIP_1090,MH-BUS-1,MUM_Route_A,STOP_15,Kurla,11:22:30,11:20:30,08:06:15,08:10:15,,43.0,Friday,2024-06-02,Rainy
TRIP_1091,MH-BUS-7,MUM_Route_B,STOP_10,Chembur,15:44:03,15:40:03,21:47:49,21:54:49,25.0,34.0,Wednesday,2024-08-12,Humid
TRIP_1092,MH-BUS-4,MUM_Route_E,STOP_2,Colaba,01:12:44,01:31:44,23:05:54,23:15:54,22.0,25.0,Sunday,2024-06-30,Humid
TRIP_1093,MH-BUS-8,MUM_Route_A,STOP_10,Andheri,01:00:56,01:20:56,02:37:46,02:39:46,0.0,24.0,Wednesday,2024-07-10,Humid
TRIP_1094,MH-BUS-4,MUM_Route_A,STOP_8,Andheri,00:01:39,00:07:39,07:13:35,07:14:35,35.0,29.0,Tuesday,2024-08-28,Cloudy
TRIP_1095,MH-BUS-6,MUM_Route_B,STOP_13,Panvel,22:19:21,22:26:21,21:54:38,21:54:38,24.0,2.0,Saturday,2024-07-16,Monsoon
TRIP_1096,MH-BUS-10,MUM_Route_D,STOP_7,Thane,08:24:13,082213,17:30:59,17:37:59,30.0,10.0,Monday,2024-08-21,Rainy
TRIP_1097,MH-BUS-9,MUM_Route_D,STOP_12,Kurla,06:57:01,06:53:01,11:17:50,11:22:50,35.0,34.0,Tuesday,2024-08-28,Sunny
TRIP_1098,MH-BUS-8,MUM_Route_A,STOP_7,Belapur,07:07:16,07:10:16,14:22:32,14:29:32,55.0,27.0,Wednesday,2024-07-26,Humid
TRIP_1099,MH-BUS-2,MUM_Route_A,STOP_17,Powai,00:24:50,00:32:50,06:58:58,07:01:58,29.0,15.0,Thursday,2024-07-31,Partly Cloudy
TRIP_1100,MH-BUS-3,MUM_Route_C,STOP_9,Chembur,18:09:50,18:24:50,09:19:14,09:24:14,44.0,13.0,Wednesday,2024-06-24,Cloudy
TRIP_1101,MH-BUS-8,MUM_Route_E,STOP_14,Thane,22:35:24,22:38:24,15:59:41,16:07:41,16.0,21.0,Friday,2024-06-22,Sunny
TRIP_1102,MH-BUS-1,MUM_Route_B,STOP_20,Nerul,09:45:39,09:40:39,13:46:46,13:53:46,15.0,22.0,Sunday,2024-06-04,Humid
TRIP_1103,MH-BUS-9,MUM_Route_D,STOP_4,Colaba,21:32:25,,13:11:25,13:11:25,36.0,45.0,Tuesday,2024-07-30,Sunny
TRIP_1104,MH-BUS-1,MUM_Route_A,STOP_10,Vashi,04:17:35,04:15:35,03:17:59,03:19:59,1.0,29.0,Wednesday,2024-08-28,Sunny
TRIP_1105,MH-BUS-1,MUM_Route_A,STOP_14,Nerul,21:38:14,21:33:14,18:30:33,18:35:33,30.0,34.0,Thursday,2024-08-04,Partly Cloudy
TRIP_1106,MH-BUS-9,MUM_Route_C,STOP_16,Colaba,14:40:12,14:50:12,06:57:08,07:03:08,,8.0,Sunday,2024-06-17,Humid
TRIP_1107,MH-BUS-9,MUM_Route_A,STOP_11,Belapur,17:34:43,17:37:43,07:19:19,07:27:19,23.0,5.0,Saturday,2024-08-17,Rainy
TRIP_1108,MH-BUS-1,MUM_Route_C,STOP_7,Kurla,05:32:31,05:42:31,00:32:19,00:41:19,25.0,11.0,Sunday,2024-08-16,Rainy
TRIP_1109,MH-BUS-6,MUM_Route_E,STOP_8,Nerul,13:17:19,13:25:19,16:19:12,16:21:12,15.0,0.0,Tuesday,2024-06-15,Humid
TRIP_1110,MH-BUS-6,MUM_Route_B,STOP_15,CST,06:56:06,07:04:06,01:35:36,01:40:36,13.0,60.0,Saturday,2024-08-18,Rainy
TRIP_1111,MH-BUS-4,MUM_Route_E,STOP_12,CST,03:36:24,03:33:24,13:32:45,13:42:45,20.0,,Tuesday,2024-07-04,Monsoon
TRIP_1112,MH-BUS-7,MUM_Route_A,STOP_9,Panvel,06:16:27,06:20:27,18:26:40,18:33:40,57.0,8.0,Tuesday,2024-08-31,Sunny
TRIP_1113,MH-BUS-9,MUM_Route_E,STOP_19,Thane,07:41:46,07:43:46,09:33:10,,50.0,28.0,Monday,2024-08-02,Monsoon
TRIP_1114,MH-BUS-1,MUM_Route_D,STOP_3,Panvel,10:20:40,10:24:40,09:36:22,09:41:22,25.0,19.0,Wednesday,2024-07-22,Sunny
TRIP_1115,MH-BUS-2,MUM_Route_A,STOP_5,Kurla,11:45:07,12:04:07,08:02:03,08:04:03,12.0,-2.0,Thursday,2024-07-12,Cloudy
TRIP_1116,MH-BUS-8,MUM_Route_B,STOP_11,Panvel,20:53:01,21:12:01,18:32:14,18:34:14,10.0,21.0,Tuesday,2024-06-27,Sunny
TRIP_1117,MH-BUS-5,MUM_Route_B,STOP_14,Dadar,05:05:18,05:22:18,08:49:52,08:50:52,7.0,0.0,Sunday,2024-08-20,Sunny
TRIP_1118,MH-BUS-5,MUM_Route_E,STOP_14,Borivali,19:15:40,19:17:40,14:21:02,14:22:02,80.0,25.0,Tuesday,2024-08-21,sunny
TRIP_1119,MH-BUS-2,MUM_Route_C,STOP_9,Andheri,13:31:58,13:36:58,18:04:19,18:10:19,19.0,28.0,Saturday,2024-07-03,Humid
TRIP_1120,MH-BUS-5,MUM_Route_D,STOP_3,Nerul,04:11:04,04:20:04,14:58:45,14:59:45,22.0,17.0,Monday,2024-08-12,Sunny
TRIP_1121,MH-BUS-1,MUM_Route_E,STOP_11,Andheri,12:31:01,12:39:01,02:40:15,02:43:15,18.0,27.0,Friday,2024-06-19,Cloudy
TRIP_1122,MH-BUS-10,MUM_Route_E,STOP_12,Dadar,15:00:53,15:02:53,05:47:58,05:50:58,35.0,7.0,Sunday,2024-08-14,Sunny
TRIP_1123,MH-BUS-7,MUM_Route_A,STOP_6,Lower Parel,19:02:21,19:17:21,21:43:47,21:47:47,0.0,2.0,Monday,2024-08-05,Humid
TRIP_1124,MH-BUS-9,MUM_Route_D,STOP_6,Chembur,21:30:35,21:28:35,09:38:12,09:44:12,35.0,,Saturday,2024-07-10,Cloudy
TRIP_1125,MH-BUS-8,MUM_Route_E,STOP_4,Panvel,17:31:38,17:41:38,20:14:21,08:23:21PM,12.0,8.0,Saturday,2024-07-23,
TRIP_1126,MH-BUS-6,MUM_Route_E,STOP_16,Powai,07:16:24,07:21:24,22:12:04,22:22:04,,13.0,Sunday,2024-07-12,Humid
TRIP_1127,MH-BUS-7,MUM_Route_B,STOP_18,Colaba,04:26:32,04:39:32,20:47:43,20:53:43,13.0,34.0,Saturday,2024-08-13,Partly Cloudy
TRIP_1128,MH-BUS-7,MUM_Route_E,STOP_11,Dadar,10:40:26,,00:47:39,00:52:39,22.0,12.0,Sunday,2024-06-17,
TRIP_1129,MH-BUS-1,MUM_Route_E,STOP_13,Vashi,08:27:53,08:32:53,09:10:31,09:16:31,7.0,37.0,Wednesday,2024-08-18,Sunny
TRIP_1130,MH-BUS-7,MUM_Route_C,STOP_6,Chembur,07:04:01,07:07:01,20:21:37,20:25:37,32.0,33.0,Tuesday,2024-06-21,Sunny
TRIP_1131,MH-BUS-10,MUM_Route_B,STOP_5,Kurla,14:37:18,14:55:18,04:33:36,,4.0,18.0,Tuesday,2024-07-31,Rainy
TRIP_1132,MH-BUS-5,MUM_Route_E,STOP_9,Kurla,19:32:12,,12:55:41,13:02:41,37.0,46.0,Saturday,2024-07-14,Monsoon
TRIP_1133,MH-BUS-8,MUM_Route_A,STOP_6,Vashi,17:18:30,17:29:30,15:53:02,16:02:02,9.0,0.0,Sunday,2024-07-03,Cloudy
TRIP_1134,MH-BUS-9,MUM_Route_D,STOP_13,Bandra,10:10:30,10:22:30,22:34:49,22:40:49,36.0,40.0,Friday,2024-08-07,Partly Cloudy
TRIP_1135,MH-BUS-3,MUM_Route_D,STOP_1,Thane,08:35:38,08:43:38,11:18:46,11:28:46,,30.0,Sunday,2024-06-21,Sunny
TRIP_1136,MH-BUS-10,MUM_Route_D,STOP_12,Lower Parel,22:38:18,22:48:18,03:17:44,03:24:44,16.0,21.0,Tuesday,2024-07-28,Monsoon
TRIP_1137,MH-BUS-9,MUM_Route_E,STOP_17,Belapur,08:08:09,08:15:09,09:43:20,09:43:20,24.0,16.0,Sunday,2024-08-30,Humid
TRIP_1138,MH-BUS-8,MUM_Route_C,STOP_16,Thane,18:10:04,18:06:04,13:53:27,13:53:27,47.0,12.0,Thursday,2024-08-07,Sunny
TRIP_1139,MH-BUS-9,MUM_Route_A,STOP_15,Bandra,10:48:37,10:53:37,09:44:31,09:53:31,34.0,15.0,Wednesday,2024-06-26,Rainy
TRIP_1140,MH-BUS-1,MUM_Route_C,STOP_9,Powai,07:36:35,07:53:35,14:21:57,14:30:57,4.0,17.0,Saturday,2024-08-29,Monsoon
TRIP_1141,MH-BUS-1,MUM_Route_C,STOP_2,Chembur,02:56:02,02:55:02,09:53:51,09:53:51,35.0,16.0,Thursday,2024-06-08,Rainy
TRIP_1142,MH-BUS-4,MUM_Route_A,STOP_11,Nerul,07:36:39,07:55:39,02:46:58,02:50:58,39.0,14.0,Friday,2024-06-23,Rainy
TRIP_1143,MH-BUS-5,MUM_Route_A,STOP_10,Belapur,02:47:37,03:04:37,02:20:55,02:23:55,54.0,28.0,Sunday,2024-08-21,Cloudy
TRIP_1144,MH-BUS-1,MUM_Route_A,STOP_18,Colaba,03:05:20,03:13:20,11:13:09,11:13:09,39.0,,Thursday,2024-07-02,Humid
TRIP_1145,MH-BUS-5,MUM_Route_C,STOP_1,Andheri,09:06:16,09:22:16,06:01:54,,7.0,31.0,Tuesday,2024-08-27,Sunny
TRIP_1146,MH-BUS-8,MUM_Route_D,STOP_11,Vashi,15:05:52,15:17:52,18:00:01,18:01:01,10.0,35.0,Friday,2024-06-18,Cloudy
TRIP_1147,MH-BUS-9,MUM_Route_E,STOP_1,Mulund,22:01:10,22:20:10,19:30:14,19:35:14,34.0,14.0,Sunday,2024-07-22,Cloudy
TRIP_1148,MH-BUS-2,MUM_Route_B,STOP_10,Bandra,10:57:30,11:00:30,11:23:41,11:29:41,33.0,3.0,Tuesday,2024-07-10,Cloudy
TRIP_1149,MH-BUS-8,MUM_Route_E,STOP_11,CST,19:32:43,193843,04:50:11,04:57:11,34.0,19.0,Sunday,2024-07-23,Partly Cloudy
TRIP_1150,MH-BUS-1,MUM_Route_A,STOP_18,Panvel,11:09:25,11:11:25,23:49:42,23:49:42,10.0,8.0,Monday,2024-06-09,Rainy
TRIP_1151,MH-BUS-8,MUM_Route_A,STOP_3,Churchgate,15:58:56,16:05:56,00:42:10,00:48:10,31.0,11.0,Monday,2024-06-04,Partly Cloudy
TRIP_1152,MH-BUS-7,MUM_Route_A,STOP_11,Nerul,19:09:37,19:15:37,16:48:04,16:48:04,35.0,24.0,Saturday,2024-07-09,Monsoon
TRIP_1153,MH-BUS-3,MUM_Route_A,STOP_20,Kurla,23:08:13,23:15:13,13:56:47,,29.0,6.0,Thursday,2024-08-07,Rainy
TRIP_1154,MH-BUS-7,MUM_Route_C,STOP_9,Worli,14:44:36,14:45:36,19:38:34,19:44:34,21.0,45.0,Thursday,2024-06-10,Rainy
TRIP_1155,MH-BUS-10,MUM_Route_B,STOP_2,Belapur,03:53:39,04:12:39,06:24:27,06:30:27,27.0,23.0,Monday,2024-07-12,Cloudy
TRIP_1156,MH-BUS-10,MUM_Route_C,STOP_15,Ghatkopar,19:37:24,19:45:24,02:07:23,02:11:23,23.0,24.0,Tuesday,2024-07-15,Humid
TRIP_1157,MH-BUS-9,MUM_Route_A,STOP_15,Nerul,19:52:42,20:00:42,06:04:49,06:05:49,44.0,23.0,Monday,2024-06-02,Monsoon
TRIP_1158,MH-BUS-8,MUM_Route_D,STOP_5,Panvel,09:58:49,10:01:49,01:27:47,01:29:47,,26.0,Thursday,2024-08-15,Humid
TRIP_1159,MH-BUS-2,MUM_Route_B,STOP_18,Lower Parel,00:11:32,00:13:32,04:28:34,04:33:34,25.0,,Wednesday,2024-06-03,Partly Cloudy
TRIP_1160,MH-BUS-7,MUM_Route_C,STOP_1,Powai,21:31:05,21:35:05,18:08:52,18:17:52,46.0,9.0,Thursday,2024-08-16,Monsoon
TRIP_1161,MH-BUS-4,MUM_Route_E,STOP_15,Andheri,00:41:45,00:50:45,23:00:15,23:03:15,5.0,0.0,Sunday,2024-08-12,Monsoon
TRIP_1162,MH-BUS-10,MUM_Route_E,STOP_2,CST,23:36:50,23:43:50,18:02:33,18:03:33,15.0,24.0,Tuesday,2024-06-11,Cloudy
TRIP_1163,MH-BUS-3,MUM_Route_A,STOP_3,CST,17:54:48,18:00:48,13:24:43,13:26:43,12.0,0.0,Sunday,2024-06-13,Cloudy
TRIP_1164,MH-BUS-3,MUM_Route_D,STOP_8,Powai,16:19:39,16:16:39,01:55:51,01:55:51,33.0,14.0,Saturday,2024-08-10,Partly Cloudy
TRIP_1165,MH-BUS-2,MUM_Route_C,STOP_3,Churchgate,14:38:56,14:37:56,01:38:57,01:44:57,39.0,0.0,Wednesday,2024-06-30,Cloudy
TRIP_1166,MH-BUS-2,MUM_Route_D,STOP_19,Colaba,22:53:38,23:12:38,20:04:46,20:10:46,15.0,13.0,Wednesday,2024-07-29,Sunny
TRIP_1167,MH-BUS-8,MUM_Route_E,STOP_5,Nerul,01:39:48,01:48:48,15:21:09,15:21:09,38.0,38.0,Wednesday,2024-08-07,Cloudy
TRIP_1168,MH-BUS-5,MUM_Route_B,STOP_3,CST,22:27:28,22:32:28,08:02:50,,13.0,39.0,Sunday,2024-07-11,Cloudy
TRIP_1169,MH-BUS-10,MUM_Route_D,STOP_18,Dadar,19:05:47,19:07:47,02:25:46,02:29:46,7.0,7.0,Friday,2024-08-01,partly cloudy
TRIP_1170,MH-BUS-5,MUM_Route_A,STOP_17,Nerul,03:44:54,04:04:54,05:12:09,05:21:09,39.0,38.0,Tuesday,2024-08-17,Monsoon
TRIP_1171,MH-BUS-2,MUM_Route_C,STOP_12,Thane,16:09:24,04:06:24PM,20:50:09,20:58:09,32.0,7.0,Saturday,2024-08-29,Monsoon
TRIP_1172,MH-BUS-3,MUM_Route_E,STOP_4,Kharghar,06:27:09,06:31:09,21:40:29,21:43:29,18.0,,Monday,2024-07-03,Sunny
TRIP_1173,MH-BUS-7,MUM_Route_D,STOP_19,Bandra,04:23:16,04:31:16,11:17:37,,14.0,38.0,Thursday,2024-08-15,Cloudy
TRIP_1174,MH-BUS-7,MUM_Route_A,STOP_15,Churchgate,19:05:33,19:22:33,11:06:46,11:06:46,13.0,16.0,Wednesday,2024-06-12,Cloudy
TRIP_1175,MH-BUS-7,MUM_Route_C,STOP_16,Andheri,21:21:44,21:20:44,11:49:46,11:59:46,26.0,17.0,Monday,2024-06-11,Monsoon
TRIP_1176,MH-BUS-1,MUM_Route_E,STOP_17,Powai,18:38:04,18:44:04,08:10:35,08:18:35,,26.0,Friday,2024-08-27,Sunny
TRIP_1177,MH-BUS-1,MUM_Route_B,STOP_13,Kurla,17:03:56,17:15:56,05:39:09,05:39:09,32.0,40.0,Friday,2024-08-26,Humid
TRIP_1178,MH-BUS-5,MUM_Route_E,STOP_10,Colaba,13:26:44,13:30:44,01:47:33,01:53:33,8.0,33.0,Thursday,2024-06-21,
TRIP_1179,MH-BUS-5,MUM_Route_E,STOP_16,Worli,02:12:39,02:13:39,16:06:11,16:13:11,18.0,21.0,Tuesday,2024-06-29,Cloudy
TRIP_1180,MH-BUS-10,MUM_Route_E,STOP_11,Kharghar,04:52:06,04:48:06,04:58:40,05:00:40,26.0,46.0,Friday,2024-06-01,Sunny
TRIP_1181,MH-BUS-2,MUM_Route_E,STOP_3,Dadar,06:56:03,06:57:03,23:33:11,23:38:11,22.0,3.0,Tuesday,2024-06-07,Rainy
TRIP_1182,MH-BUS-8,MUM_Route_E,STOP_16,Panvel,03:57:58,04:13:58,05:52:50,,39.0,19.0,Sunday,2024-07-26,Cloudy
TRIP_1183,MH-BUS-10,MUM_Route_B,STOP_11,Borivali,14:20:39,14:23:39,05:30:07,05:31:07,53.0,6.0,Sunday,2024-07-24,Monsoon
TRIP_1184,MH-BUS-6,MUM_Route_C,STOP_9,Thane,14:45:16,14:56:16,14:04:02,,7.0,25.0,Saturday,2024-08-02,sunny
TRIP_1185,MH-BUS-1,MUM_Route_D,STOP_14,Chembur,00:49:34,00:59:34,02:18:44,02:27:44,28.0,0.0,Saturday,2024-06-19,Rainy
TRIP_1186,MH-BUS-7,MUM_Route_E,STOP_14,Mulund,08:11:04,08:19:04,10:11:57,10:12:57,4.0,10.0,Sunday,2024-08-17,Monsoon
TRIP_1187,MH-BUS-1,MUM_Route_D,STOP_20,Powai,16:36:02,16:51:02,16:30:56,16:39:56,45.0,45.0,Monday,2024-08-09,Humid
TRIP_1188,MH-BUS-9,MUM_Route_A,STOP_14,Bandra,11:00:32,10:58:32,00:39:16,00:48:16,53.0,9.0,Saturday,2024-06-16,Humid
TRIP_1189,MH-BUS-9,MUM_Route_D,STOP_6,Kurla,16:16:05,16:21:05,18:28:43,18:33:43,33.0,4.0,Tuesday,2024-08-25,Cloudy
TRIP_1190,MH-BUS-8,MUM_Route_B,STOP_11,CST,23:16:08,23:34:08,10:57:01,11:03:01,31.0,0.0,Friday,2024-06-28,Rainy
TRIP_1191,MH-BUS-5,MUM_Route_B,STOP_19,Panvel,14:20:46,14:18:46,14:30:43,14:40:43,10.0,0.0,Sunday,2024-08-19,Humid
TRIP_1192,MH-BUS-10,MUM_Route_D,STOP_11,Churchgate,06:28:08,06:47:08,05:08:29,05:09:29,19.0,10.0,Tuesday,2024-06-21,Partly Cloudy
TRIP_1193,MH-BUS-9,MUM_Route_D,STOP_20,Belapur,02:55:02,02:53:02,16:58:54,17:00:54,24.0,,Friday,2024-06-10,Cloudy
TRIP_1194,MH-BUS-6,MUM_Route_C,STOP_15,Ghatkopar,13:00:44,13:20:44,13:25:00,13:33:00,33.0,16.0,Saturday,2024-07-03,Humid
TRIP_1195,MH-BUS-2,MUM_Route_C,STOP_6,Kharghar,08:47:28,08:49:28,05:42:15,05:45:15,72.0,49.0,Friday,2024-06-10,Cloudy
TRIP_1196,MH-BUS-9,MUM_Route_B,STOP_19,Borivali,09:49:33,09:47:33,23:59:01,00:03:01,18.0,42.0,Wednesday,2024-07-01,Rainy
TRIP_1197,MH-BUS-3,MUM_Route_C,STOP_1,Vashi,20:13:49,20:33:49,11:06:55,11:16:55,28.0,0.0,Sunday,2024-06-26,Cloudy
TRIP_1198,MH-BUS-9,MUM_Route_A,STOP_13,Chembur,03:39:44,03:54:44,00:02:37,00:03:37,27.0,26.0,Saturday,2024-08-09,Rainy
TRIP_1199,MH-BUS-8,MUM_Route_B,STOP_9,Andheri,12:44:05,13:01:05,00:40:03,,48.0,26.0,Monday,2024-07-24,Humid
TRIP_1200,MH-BUS-3,MUM_Route_B,STOP_13,Worli,15:56:09,16:13:09,12:16:12,12:22:12,45.0,32.0,Saturday,2024-08-21,Rainy
TRIP_1201,MH-BUS-9,MUM_Route_A,STOP_8,Borivali,01:09:50,01:04:50,01:04:00,01:04:00,21.0,46.0,Saturday,2024-06-12,Cloudy
TRIP_1202,MH-BUS-8,MUM_Route_A,STOP_5,CST,02:34:35,,01:50:28,01:50:28,42.0,21.0,Saturday,2024-06-17,Partly Cloudy
TRIP_1203,MH-BUS-8,MUM_Route_B,STOP_11,Bandra,06:18:09,06:22:09,09:58:31,09:58:31,31.0,0.0,Thursday,2024-06-01,Partly Cloudy
TRIP_1204,MH-BUS-3,MUM_Route_E,STOP_3,Ghatkopar,02:22:34,02:39:34,04:19:49,04:22:49,38.0,0.0,Sunday,2024-06-30,Monsoon
TRIP_1205,MH-BUS-5,MUM_Route_D,STOP_9,Ghatkopar,13:50:40,14:04:40,17:32:11,17:38:11,23.0,39.0,Friday,2024-06-17,Humid
TRIP_1206,MH-BUS-2,MUM_Route_E,STOP_14,Dadar,05:41:36,05:39:36,20:53:20,,16.0,24.0,Wednesday,2024-08-15,Monsoon
TRIP_1207,MH-BUS-9,MUM_Route_E,STOP_16,Chembur,07:03:49,07:05:49,14:46:17,14:52:17,25.0,5.0,Monday,2024-06-24,Cloudy
TRIP_1208,MH-BUS-3,MUM_Route_D,STOP_6,Andheri,08:15:49,08:10:49,08:33:54,08:37:54,19.0,25.0,Monday,2024-06-03,Partly Cloudy
TRIP_1209,MH-BUS-8,MUM_Route_A,STOP_15,Worli,03:36:21,03:42:21,09:45:34,09:46:34,41.0,27.0,Sunday,2024-07-30,
TRIP_1210,MH-BUS-9,MUM_Route_D,STOP_18,Thane,07:21:36,07:31:36,19:35:41,19:41:41,51.0,16.0,Monday,2024-06-30,Cloudy
TRIP_1211,MH-BUS-7,MUM_Route_B,STOP_4,Bandra,02:30:01,02:49:01,10:26:33,10:30:33,31.0,42.0,Wednesday,2024-08-28,Monsoon
TRIP_1212,MH-BUS-6,MUM_Route_D,STOP_5,Andheri,15:21:38,15:29:38,08:39:08,08:48:08,4.0,22.0,Saturday,2024-07-11,Monsoon
TRIP_1213,MH-BUS-4,MUM_Route_A,STOP_6,Panvel,06:54:35,06:57:35,23:51:45,00:00:45,22.0,31.0,Saturday,2024-07-21,Rainy
TRIP_1214,MH-BUS-9,MUM_Route_C,STOP_13,Churchgate,20:56:53,21:08:53,01:56:52,02:03:52,43.0,46.0,Monday,2024-07-08,Sunny
TRIP_1215,MH-BUS-4,MUM_Route_E,STOP_14,Thane,00:08:46,12:11:46AM,00:18:49,00:21:49,0.0,31.0,Thursday,2024-06-06,Monsoon
TRIP_1216,MH-BUS-9,MUM_Route_C,STOP_19,Worli,15:10:37,,12:38:16,12:48:16,9.0,19.0,Monday,2024-08-10,Monsoon
TRIP_1217,MH-BUS-1,MUM_Route_C,STOP_13,Kurla,16:36:58,16:51:58,19:12:21,19:20:21,16.0,0.0,Wednesday,2024-06-20,Cloudy
TRIP_1218,MH-BUS-9,MUM_Route_C,STOP_9,Mulund,08:24:13,08:37:13,05:56:12,06:05:12,17.0,,Thursday,2024-08-19,Monsoon
TRIP_1219,MH-BUS-3,MUM_Route_E,STOP_3,Borivali,16:22:51,16:42:51,18:16:33,18:20:33,31.0,26.0,Tuesday,2024-08-24,Sunny
TRIP_1220,MH-BUS-3,MUM_Route_A,STOP_9,Belapur,02:20:14,02:23:14,00:18:07,,30.0,18.0,Wednesday,2024-06-04,Cloudy
TRIP_1221,MH-BUS-9,MUM_Route_A,STOP_1,Mulund,12:27:58,12:35:58,05:54:24,05:56:24,35.0,12.0,Wednesday,2024-07-11,Cloudy
TRIP_1222,MH-BUS-2,MUM_Route_E,STOP_12,Vashi,16:27:55,,16:16:28,16:21:28,0.0,3.0,Saturday,2024-08-08,Cloudy
TRIP_1223,MH-BUS-2,MUM_Route_D,STOP_2,Vashi,18:42:00,06:55:00PM,17:06:55,17:06:55,51.0,18.0,Saturday,2024-08-27,Monsoon
TRIP_1224,MH-BUS-8,MUM_Route_C,STOP_13,Colaba,22:21:45,,16:00:23,16:07:23,27.0,27.0,Saturday,2024-08-22,Cloudy
TRIP_1225,MH-BUS-6,MUM_Route_A,STOP_7,CST,13:32:46,13:29:46,14:57:14,15:05:14,30.0,4.0,Friday,2024-07-15,Rainy
TRIP_1226,MH-BUS-3,MUM_Route_B,STOP_13,Churchgate,12:51:54,13:00:54,21:33:21,21:34:21,26.0,21.0,Monday,2024-06-12,Humid
TRIP_1227,MH-BUS-5,MUM_Route_A,STOP_2,Vashi,19:00:01,19:09:01,14:52:14,14:57:14,31.0,21.0,Thursday,2024-06-13,
TRIP_1228,MH-BUS-9,MUM_Route_E,STOP_16,Borivali,14:00:52,14:18:52,18:54:40,19:02:40,24.0,32.0,Monday,2024-06-11,Humid
TRIP_1229,MH-BUS-6,MUM_Route_D,STOP_13,CST,02:41:23,025123,11:24:17,11:30:17,8.0,22.0,Thursday,2024-07-21,Monsoon
TRIP_1230,MH-BUS-10,MUM_Route_E,STOP_11,Borivali,10:07:53,10:19:53,09:31:34,09:41:34,20.0,13.0,Tuesday,2024-07-18,Humid
TRIP_1231,MH-BUS-3,MUM_Route_C,STOP_4,Kharghar,13:31:10,13:40:10,23:45:54,11:50:54PM,22.0,56.0,Saturday,2024-06-19,
TRIP_1232,MH-BUS-3,MUM_Route_D,STOP_6,CST,13:26:05,134605,04:35:41,04:43:41,34.0,13.0,Friday,2024-07-22,Partly Cloudy
TRIP_1233,MH-BUS-6,MUM_Route_E,STOP_9,CST,17:01:11,17:15:11,00:49:47,00:51:47,8.0,20.0,Monday,2024-06-27,Monsoon
TRIP_1234,MH-BUS-2,MUM_Route_D,STOP_2,Bandra,03:42:10,03:46:10,13:15:06,13:20:06,25.0,36.0,Wednesday,2024-06-01,Partly Cloudy
TRIP_1235,MH-BUS-8,MUM_Route_E,STOP_6,CST,06:38:13,06:57:13,18:54:34,19:04:34,22.0,50.0,Sunday,2024-06-13,Partly Cloudy
TRIP_1236,MH-BUS-8,MUM_Route_A,STOP_5,Powai,19:15:27,19:14:27,07:55:51,08:02:51,28.0,35.0,Sunday,2024-08-03,Monsoon
TRIP_1237,MH-BUS-9,MUM_Route_A,STOP_18,Colaba,13:36:57,13:32:57,21:35:02,214302,22.0,11.0,Thursday,2024-07-28,Monsoon
TRIP_1238,MH-BUS-9,MUM_Route_D,STOP_16,Kurla,13:41:18,13:38:18,01:57:38,01:59:38,,24.0,Friday,2024-07-29,Partly Cloudy
TRIP_1239,MH-BUS-2,MUM_Route_E,STOP_13,Bandra,17:58:29,18:13:29,04:42:25,04:48:25,23.0,12.0,Tuesday,2024-08-28,Rainy
TRIP_1240,MH-BUS-6,MUM_Route_E,STOP_7,Panvel,07:42:59,073959,01:11:02,01:19:02,7.0,14.0,Friday,2024-06-28,Partly Cloudy
TRIP_1241,MH-BUS-2,MUM_Route_E,STOP_8,Kharghar,14:17:27,14:25:27,07:44:05,07:47:05,-5.0,1.0,Thursday,2024-06-06,PARTLY CLOUDY
TRIP_1242,MH-BUS-9,MUM_Route_D,STOP_17,Churchgate,21:23:32,21:31:32,11:30:45,11:40:45,-5.0,31.0,Saturday,2024-08-03,Sunny
TRIP_1243,MH-BUS-6,MUM_Route_B,STOP_3,Panvel,03:47:37,03:57:37,16:15:58,16:16:58,26.0,21.0,Sunday,2024-06-12,Rainy
TRIP_1244,MH-BUS-4,MUM_Route_C,STOP_16,Andheri,12:04:41,12:22:41,21:00:00,21:04:00,35.0,21.0,Sunday,2024-08-24,Monsoon
TRIP_1245,MH-BUS-1,MUM_Route_C,STOP_11,Dadar,20:06:59,20:02:59,12:43:57,12:46:57,57.0,7.0,Friday,2024-07-25,Rainy
TRIP_1246,MH-BUS-8,MUM_Route_B,STOP_2,Churchgate,14:48:22,14:58:22,16:46:44,16:55:44,,56.0,Thursday,2024-08-25,Sunny
TRIP_1247,MH-BUS-6,MUM_Route_A,STOP_7,Bandra,02:23:51,,06:50:18,06:55:18,38.0,22.0,Thursday,2024-06-20,Humid
TRIP_1248,MH-BUS-7,MUM_Route_E,STOP_19,Dadar,08:51:38,08:51:38,18:09:31,18:18:31,25.0,48.0,Monday,2024-06-04,Cloudy
TRIP_1249,MH-BUS-3,MUM_Route_A,STOP_12,Worli,12:50:22,13:05:22,10:16:42,10:17:42,47.0,23.0,Thursday,2024-08-24,Rainy
TRIP_1250,MH-BUS-5,MUM_Route_C,STOP_20,Chembur,20:17:46,20:22:46,11:25:15,11:31:15,31.0,12.0,Friday,2024-07-01,Monsoon
TRIP_1251,MH-BUS-3,MUM_Route_E,STOP_11,Bandra,06:00:33,05:55:33,12:31:00,12:34:00,33.0,25.0,Tuesday,2024-06-05,Cloudy
TRIP_1252,MH-BUS-4,MUM_Route_A,STOP_4,Panvel,19:20:37,19:15:37,15:46:28,15:55:28,18.0,0.0,Wednesday,2024-06-03,Cloudy
TRIP_1253,MH-BUS-4,MUM_Route_B,STOP_4,Churchgate,10:47:56,10:50:56,15:00:01,15:01:01,43.0,37.0,Sunday,2024-07-09,Sunny
TRIP_1254,MH-BUS-3,MUM_Route_C,STOP_13,Lower Parel,00:31:01,00:34:01,02:06:54,02:08:54,11.0,19.0,Wednesday,2024-08-19,Monsoon
TRIP_1255,MH-BUS-4,MUM_Route_B,STOP_7,Worli,09:39:16,09:58:16,19:47:39,19:53:39,18.0,32.0,Wednesday,2024-08-25,Cloudy
TRIP_1256,MH-BUS-3,MUM_Route_E,STOP_10,Panvel,02:03:22,01:59:22,00:08:46,00:13:46,10.0,59.0,Sunday,2024-08-01,Cloudy
TRIP_1257,MH-BUS-7,MUM_Route_D,STOP_20,Kurla,16:33:31,16:38:31,12:35:45,12:37:45,16.0,23.0,Saturday,2024-08-12,Humid
TRIP_1258,MH-BUS-2,MUM_Route_B,STOP_16,Nerul,07:13:40,07:16:40,12:43:50,12:46:50,21.0,48.0,Monday,2024-06-07,Rainy
TRIP_1259,MH-BUS-1,MUM_Route_D,STOP_6,Dadar,09:55:46,10:15:46,23:40:42,23:45:42,15.0,26.0,Monday,2024-08-16,Partly Cloudy
TRIP_1260,MH-BUS-3,MUM_Route_D,STOP_6,Worli,14:42:13,14:39:13,05:15:46,05:23:46,31.0,0.0,Saturday,2024-06-11,Monsoon
TRIP_1261,MH-BUS-7,MUM_Route_A,STOP_3,Mulund,00:53:22,01:00:22,11:44:55,11:52:55,28.0,18.0,Monday,2024-07-25,Rainy
TRIP_1262,MH-BUS-7,MUM_Route_B,STOP_10,Panvel,12:04:14,12:15:14,07:12:18,07:19:18,30.0,43.0,Tuesday,2024-07-26,Cloudy
TRIP_1263,MH-BUS-10,MUM_Route_B,STOP_10,Worli,13:08:58,13:24:58,11:17:23,11:20:23,33.0,36.0,Tuesday,2024-08-13,Monsoon
TRIP_1264,MH-BUS-4,MUM_Route_E,STOP_20,Churchgate,09:25:51,092851,07:29:16,07:39:16,38.0,20.0,Tuesday,2024-08-02,Cloudy
TRIP_1265,MH-BUS-8,MUM_Route_E,STOP_10,Powai,14:53:11,15:05:11,02:34:10,02:34:10,-5.0,36.0,Friday,2024-08-23,Humid
TRIP_1266,MH-BUS-9,MUM_Route_D,STOP_3,Kharghar,04:03:45,,09:54:35,,17.0,14.0,Sunday,2024-08-08,Partly Cloudy
TRIP_1267,MH-BUS-8,MUM_Route_C,STOP_6,Panvel,02:57:56,,21:12:34,21:20:34,,20.0,Friday,2024-08-14,Sunny
TRIP_1268,MH-BUS-8,MUM_Route_E,STOP_7,Vashi,09:35:53,09:42:53,01:45:54,01:49:54,21.0,20.0,Thursday,2024-06-16,
TRIP_1269,MH-BUS-6,MUM_Route_C,STOP_8,Nerul,02:46:06,02:45:06,11:31:35,11:40:35,20.0,26.0,Friday,2024-06-22,Cloudy
TRIP_1270,MH-BUS-10,MUM_Route_B,STOP_7,Chembur,06:26:15,06:45:15,08:45:20,08:46:20,7.0,0.0,Thursday,2024-08-06,Partly Cloudy
TRIP_1271,MH-BUS-4,MUM_Route_C,STOP_16,Belapur,21:43:13,21:44:13,07:42:07,07:42:07,32.0,24.0,Tuesday,2024-07-26,Sunny
TRIP_1272,MH-BUS-9,MUM_Route_E,STOP_16,Churchgate,20:29:31,20:31:31,18:03:36,18:09:36,45.0,28.0,Sunday,2024-06-23,Monsoon
TRIP_1273,MH-BUS-10,MUM_Route_B,STOP_17,Dadar,23:47:39,00:05:39,12:49:07,12:58:07,0.0,32.0,Friday,2024-06-30,Cloudy
TRIP_1274,MH-BUS-6,MUM_Route_E,STOP_7,Dadar,08:49:59,08:53:59,05:21:20,05:22:20,26.0,6.0,Tuesday,2024-08-28,Cloudy
TRIP_1275,MH-BUS-3,MUM_Route_C,STOP_20,Worli,10:42:24,10:56:24,21:40:22,21:46:22,0.0,32.0,Wednesday,2024-07-01,cloudy
TRIP_1276,MH-BUS-8,MUM_Route_D,STOP_9,Chembur,15:44:56,15:42:56,18:15:53,18:23:53,27.0,29.0,Saturday,2024-06-21,Humid
TRIP_1277,MH-BUS-7,MUM_Route_A,STOP_5,Nerul,18:02:28,18:04:28,01:14:18,01:23:18,12.0,5.0,Saturday,2024-07-27,Rainy
TRIP_1278,MH-BUS-8,MUM_Route_A,STOP_7,Powai,01:37:51,01:35:51,18:31:50,18:31:50,36.0,26.0,Tuesday,2024-06-22,Partly Cloudy
TRIP_1279,MH-BUS-7,MUM_Route_A,STOP_12,Lower Parel,06:10:31,06:07:31,03:27:37,03:30:37,20.0,5.0,Thursday,2024-08-28,Cloudy
TRIP_1280,MH-BUS-10,MUM_Route_D,STOP_16,Bandra,04:41:32,04:57:32,01:02:09,01:03:09,28.0,0.0,Wednesday,2024-06-05,Humid
TRIP_1281,MH-BUS-6,MUM_Route_E,STOP_10,Panvel,05:22:25,05:18:25,15:59:29,16:08:29,33.0,30.0,Wednesday,2024-08-10,Sunny
TRIP_1282,MH-BUS-9,MUM_Route_B,STOP_9,Vashi,00:30:10,00:41:10,10:46:25,10:56:25,28.0,33.0,Sunday,2024-08-13,Monsoon
TRIP_1283,MH-BUS-9,MUM_Route_A,STOP_10,Lower Parel,10:35:36,10:47:36,07:45:51,07:52:51,24.0,1.0,Saturday,2024-06-14,Rainy
TRIP_1284,MH-BUS-5,MUM_Route_C,STOP_3,Belapur,10:52:17,11:05:17,03:29:51,03:38:51,25.0,22.0,Saturday,2024-06-26,Monsoon
TRIP_1285,MH-BUS-6,MUM_Route_A,STOP_16,Kharghar,11:16:11,11:22:11,11:41:48,11:48:48,0.0,,Thursday,2024-08-18,Partly Cloudy
TRIP_1286,MH-BUS-7,MUM_Route_E,STOP_18,Mulund,23:10:17,23:20:17,03:09:37,03:10:37,23.0,2.0,Monday,2024-06-17,Monsoon
TRIP_1287,MH-BUS-7,MUM_Route_C,STOP_13,Bandra,06:58:02,07:13:02,11:19:13,11:20:13,16.0,15.0,Sunday,2024-07-03,Sunny
TRIP_1288,MH-BUS-3,MUM_Route_C,STOP_15,Kurla,00:27:54,00:35:54,18:28:16,18:32:16,15.0,14.0,Saturday,2024-08-12,Partly Cloudy
TRIP_1289,MH-BUS-2,MUM_Route_B,STOP_2,Vashi,03:28:57,033757,17:06:55,,52.0,,Friday,2024-06-30,Rainy
TRIP_1290,MH-BUS-3,MUM_Route_C,STOP_7,Nerul,17:35:23,17:43:23,14:16:18,14:24:18,43.0,27.0,Friday,2024-06-05,Monsoon
TRIP_1291,MH-BUS-10,MUM_Route_D,STOP_6,Borivali,22:16:50,22:32:50,11:16:58,11:24:58,20.0,48.0,Sunday,2024-07-24,Cloudy
TRIP_1292,MH-BUS-2,MUM_Route_D,STOP_1,Mulund,10:47:29,10:58:29,03:56:32,03:59:32,27.0,34.0,Wednesday,2024-07-12,Cloudy
TRIP_1293,MH-BUS-5,MUM_Route_A,STOP_3,Colaba,01:11:11,01:14:11,12:48:44,12:57:44,0.0,0.0,Tuesday,2024-07-27,Cloudy
TRIP_1294,MH-BUS-9,MUM_Route_D,STOP_15,Kurla,01:22:56,01:35:56,03:24:43,03:31:43,-5.0,51.0,Saturday,2024-08-26,Rainy
TRIP_1295,MH-BUS-5,MUM_Route_E,STOP_19,Borivali,23:20:07,23:24:07,01:35:17,01:35:17,27.0,16.0,Wednesday,2024-06-30,Humid
TRIP_1296,MH-BUS-7,MUM_Route_C,STOP_10,Churchgate,21:11:32,21:26:32,04:13:22,,0.0,17.0,Thursday,2024-07-23,Monsoon
TRIP_1297,MH-BUS-6,MUM_Route_E,STOP_5,Ghatkopar,20:29:28,20:40:28,01:02:14,01:10:14,12.0,,Tuesday,2024-08-12,Sunny
TRIP_1298,MH-BUS-8,MUM_Route_A,STOP_19,Churchgate,07:40:13,07:41:13,05:06:16,05:08:16,9.0,40.0,Tuesday,2024-08-27,Monsoon
TRIP_1299,MH-BUS-4,MUM_Route_B,STOP_14,Powai,19:51:52,19:53:52,02:36:31,02:40:31,57.0,1.0,Sunday,2024-06-28,Partly Cloudy
TRIP_1300,MH-BUS-1,MUM_Route_E,STOP_18,CST,04:30:37,04:27:37,21:44:27,21:51:27,39.0,18.0,Friday,2024-08-25,Sunny
TRIP_1301,MH-BUS-5,MUM_Route_D,STOP_3,Borivali,13:58:20,13:59:20,10:02:45,10:06:45,15.0,35.0,Monday,2024-07-09,Sunny
TRIP_1302,MH-BUS-8,MUM_Route_D,STOP_1,Chembur,17:15:52,17:10:52,14:01:43,14:01:43,40.0,13.0,Friday,2024-07-14,Humid
TRIP_1303,MH-BUS-2,MUM_Route_B,STOP_11,Kharghar,06:55:11,07:03:11,12:00:34,12:07:34,42.0,12.0,Wednesday,2024-08-19,Humid
TRIP_1304,MH-BUS-4,MUM_Route_E,STOP_13,Worli,11:13:29,11:31:29,03:52:09,03:58:09,28.0,38.0,Monday,2024-07-10,Rainy
TRIP_1305,MH-BUS-8,MUM_Route_C,STOP_10,Panvel,18:23:58,18:37:58,20:17:09,20:26:09,30.0,8.0,Sunday,2024-07-14,Partly Cloudy
TRIP_1306,MH-BUS-3,MUM_Route_E,STOP_12,Bandra,13:13:04,13:15:04,09:48:02,09:58:02,54.0,25.0,Tuesday,2024-08-04,Humid
TRIP_1307,MH-BUS-10,MUM_Route_C,STOP_12,Belapur,04:10:36,04:14:36,04:04:06,04:12:06,38.0,30.0,Monday,2024-08-13,Humid
TRIP_1308,MH-BUS-2,MUM_Route_B,STOP_2,Borivali,13:22:01,13:22:01,04:06:04,04:06:04,26.0,16.0,Wednesday,2024-08-27,Cloudy
TRIP_1309,MH-BUS-7,MUM_Route_A,STOP_8,Ghatkopar,01:43:03,01:56:03,14:57:47,15:07:47,22.0,9.0,Friday,2024-08-04,Cloudy
TRIP_1310,MH-BUS-4,MUM_Route_C,STOP_8,Borivali,04:09:30,04:18:30,23:07:00,23:07:00,22.0,6.0,Monday,2024-06-27,Partly Cloudy
TRIP_1311,MH-BUS-2,MUM_Route_E,STOP_3,Lower Parel,19:31:46,19:31:46,03:54:24,04:01:24,0.0,19.0,Thursday,2024-08-16,Monsoon
TRIP_1312,MH-BUS-3,MUM_Route_D,STOP_2,Vashi,12:49:21,,17:06:04,17:09:04,21.0,17.0,Wednesday,2024-07-26,Rainy
TRIP_1313,MH-BUS-8,MUM_Route_B,STOP_18,Borivali,22:14:56,22:14:56,20:38:57,20:38:57,31.0,12.0,Monday,2024-07-13,Partly Cloudy
TRIP_1314,MH-BUS-8,MUM_Route_B,STOP_17,Colaba,08:55:41,09:07:41,11:12:23,11:20:23,18.0,12.0,Saturday,2024-06-24,Monsoon
TRIP_1315,MH-BUS-9,MUM_Route_B,STOP_7,Borivali,09:15:36,09:18:36,04:18:15,04:28:15,29.0,20.0,Monday,2024-08-27,Rainy
TRIP_1316,MH-BUS-9,MUM_Route_A,STOP_14,Powai,00:29:44,00:35:44,20:00:57,20:05:57,37.0,9.0,Saturday,2024-08-17,Partly Cloudy
TRIP_1317,MH-BUS-9,MUM_Route_D,STOP_12,Kharghar,11:42:38,11:56:38,14:30:56,14:36:56,24.0,7.0,Saturday,2024-06-28,Cloudy
TRIP_1318,MH-BUS-8,MUM_Route_A,STOP_17,Vashi,01:11:19,01:28:19,12:41:00,12:43:00,30.0,37.0,Thursday,2024-07-15,Monsoon
TRIP_1319,MH-BUS-2,MUM_Route_D,STOP_3,Powai,00:30:50,00:43:50,14:28:35,14:38:35,33.0,,Monday,2024-06-30,Rainy
TRIP_1320,MH-BUS-1,MUM_Route_E,STOP_16,Andheri,17:43:02,17:54:02,17:25:35,17:35:35,43.0,15.0,Wednesday,2024-06-06,Rainy
TRIP_1321,MH-BUS-4,MUM_Route_E,STOP_8,Bandra,01:37:32,01:46:32,23:28:40,23:28:40,36.0,11.0,Saturday,2024-08-14,Partly Cloudy
TRIP_1322,MH-BUS-9,MUM_Route_D,STOP_9,Colaba,03:04:31,03:21:31,08:42:39,,25.0,18.0,Friday,2024-07-08,Humid
TRIP_1323,MH-BUS-4,MUM_Route_A,STOP_19,Mulund,18:18:44,18:29:44,02:28:40,02:36:40,36.0,,Saturday,2024-08-08,SUNNY
TRIP_1324,MH-BUS-3,MUM_Route_E,STOP_4,Kharghar,06:10:55,06:14:55,13:31:00,13:40:00,46.0,44.0,Monday,2024-08-18,Rainy
TRIP_1325,MH-BUS-10,MUM_Route_B,STOP_11,Belapur,20:01:11,20:10:11,06:27:50,06:32:50,31.0,43.0,Sunday,2024-07-11,Cloudy
TRIP_1326,MH-BUS-5,MUM_Route_A,STOP_15,Kharghar,23:21:21,23:23:21,13:37:59,13:43:59,21.0,52.0,Thursday,2024-06-12,Monsoon
TRIP_1327,MH-BUS-5,MUM_Route_E,STOP_4,Churchgate,00:21:27,00:35:27,18:43:51,18:51:51,4.0,15.0,Sunday,2024-08-01,Sunny
TRIP_1328,MH-BUS-1,MUM_Route_A,STOP_14,Dadar,20:31:26,20:30:26,00:31:52,00:32:52,16.0,13.0,Friday,2024-07-09,Rainy
TRIP_1329,MH-BUS-8,MUM_Route_C,STOP_20,Mulund,22:29:58,,03:09:11,03:10:11,39.0,11.0,Sunday,2024-07-27,Rainy
TRIP_1330,MH-BUS-10,MUM_Route_A,STOP_5,Belapur,05:34:00,05:29:00,04:07:16,04:16:16,16.0,21.0,Wednesday,2024-06-02,Partly Cloudy
TRIP_1331,MH-BUS-10,MUM_Route_A,STOP_5,Andheri,13:49:21,13:49:21,18:04:00,18:12:00,25.0,21.0,Thursday,2024-08-10,sunny
TRIP_1332,MH-BUS-7,MUM_Route_C,STOP_16,Kharghar,09:35:10,09:43:10,21:34:51,21:44:51,46.0,25.0,Saturday,2024-08-31,Partly Cloudy
TRIP_1333,MH-BUS-5,MUM_Route_D,STOP_4,Borivali,04:15:19,04:31:19,14:04:40,,34.0,4.0,Monday,2024-08-09,Cloudy
TRIP_1334,MH-BUS-5,MUM_Route_C,STOP_17,Borivali,20:25:55,20:28:55,17:35:40,17:36:40,16.0,2.0,Friday,2024-07-18,Sunny
TRIP_1335,MH-BUS-7,MUM_Route_D,STOP_3,Belapur,08:06:15,08:19:15,12:01:49,12:04:49,22.0,35.0,Monday,2024-06-07,Humid
TRIP_1336,MH-BUS-1,MUM_Route_A,STOP_5,Mulund,01:57:47,02:15:47,05:40:09,05:47:09,12.0,8.0,Saturday,2024-07-29,Rainy
TRIP_1337,MH-BUS-9,MUM_Route_D,STOP_9,Colaba,18:34:47,18:36:47,23:46:24,23:46:24,13.0,29.0,Wednesday,2024-06-15,Monsoon
TRIP_1338,MH-BUS-5,MUM_Route_B,STOP_11,Lower Parel,12:04:31,,10:33:55,,31.0,12.0,Friday,2024-08-16,Sunny
TRIP_1339,MH-BUS-7,MUM_Route_C,STOP_13,Worli,08:40:30,08:48:30,00:56:31,01:05:31,2.0,10.0,Monday,2024-07-09,Cloudy
TRIP_1340,MH-BUS-1,MUM_Route_D,STOP_13,Worli,19:39:45,19:38:45,05:47:13,05:53:13,10.0,9.0,Tuesday,2024-06-08,Humid
TRIP_1341,MH-BUS-7,MUM_Route_E,STOP_15,Belapur,12:36:30,12:45:30,00:59:30,01:05:30,19.0,21.0,Saturday,2024-08-07,Cloudy
TRIP_1342,MH-BUS-10,MUM_Route_C,STOP_5,Vashi,20:23:44,20:24:44,05:52:09,06:01:09,25.0,40.0,Tuesday,2024-06-30,Rainy
TRIP_1343,MH-BUS-3,MUM_Route_E,STOP_18,Panvel,01:36:48,01:33:48,13:16:50,13:23:50,21.0,0.0,Saturday,2024-08-02,Sunny
TRIP_1344,MH-BUS-6,MUM_Route_D,STOP_7,Vashi,05:27:01,05:30:01,19:36:11,19:37:11,61.0,13.0,Thursday,2024-08-02,Humid
TRIP_1345,MH-BUS-4,MUM_Route_E,STOP_7,Thane,23:28:24,23:38:24,18:12:14,18:20:14,12.0,37.0,Thursday,2024-06-27,Humid
TRIP_1346,MH-BUS-6,MUM_Route_A,STOP_8,Dadar,02:38:48,,22:36:41,22:42:41,20.0,20.0,Thursday,2024-08-03,Humid
TRIP_1347,MH-BUS-1,MUM_Route_B,STOP_14,Belapur,18:35:37,18:36:37,22:46:25,22:51:25,20.0,0.0,Friday,2024-08-16,Cloudy
TRIP_1348,MH-BUS-10,MUM_Route_C,STOP_17,Churchgate,05:22:41,05:19:41,02:30:48,02:34:48,6.0,1.0,Tuesday,2024-07-13,Monsoon
TRIP_1349,MH-BUS-7,MUM_Route_C,STOP_4,Churchgate,07:52:00,08:10:00,18:05:03,18:12:03,43.0,10.0,Wednesday,2024-06-11,Partly Cloudy
TRIP_1350,MH-BUS-8,MUM_Route_E,STOP_7,Kurla,20:03:35,19:59:35,18:31:00,18:32:00,38.0,14.0,Friday,2024-06-21,Monsoon
TRIP_1351,MH-BUS-6,MUM_Route_C,STOP_9,Churchgate,01:42:10,01:38:10,13:14:20,13:24:20,21.0,27.0,Sunday,2024-07-05,Rainy
TRIP_1352,MH-BUS-9,MUM_Route_B,STOP_13,Ghatkopar,19:50:02,20:07:02,18:51:57,18:52:57,,0.0,Wednesday,2024-06-13,
TRIP_1353,MH-BUS-7,MUM_Route_C,STOP_3,Lower Parel,21:33:32,,02:12:07,02:21:07,17.0,18.0,Sunday,2024-07-15,Rainy
TRIP_1354,MH-BUS-9,MUM_Route_A,STOP_17,Andheri,14:51:34,15:01:34,07:29:33,07:38:33,36.0,11.0,Wednesday,2024-08-27,Partly Cloudy
TRIP_1355,MH-BUS-9,MUM_Route_B,STOP_20,Andheri,09:16:49,09:24:49,18:30:36,18:40:36,31.0,13.0,Monday,2024-08-25,Sunny
TRIP_1356,MH-BUS-1,MUM_Route_C,STOP_16,Lower Parel,02:45:23,024123,03:59:52,04:02:52,9.0,23.0,Wednesday,2024-08-04,Rainy
TRIP_1357,MH-BUS-5,MUM_Route_E,STOP_17,Belapur,18:25:41,18:38:41,23:50:34,23:53:34,26.0,6.0,Wednesday,2024-06-06,Rainy
TRIP_1358,MH-BUS-7,MUM_Route_C,STOP_7,Borivali,00:30:13,00:27:13,13:25:34,13:34:34,34.0,14.0,Tuesday,2024-07-27,Sunny
TRIP_1359,MH-BUS-6,MUM_Route_A,STOP_11,Belapur,07:43:13,07:38:13,18:58:39,19:08:39,47.0,10.0,Sunday,2024-06-26,
TRIP_1360,MH-BUS-5,MUM_Route_A,STOP_10,Colaba,05:56:02,05:56:02,20:53:09,20:54:09,0.0,7.0,Saturday,2024-06-02,Humid
TRIP_1361,MH-BUS-5,MUM_Route_B,STOP_8,Dadar,06:03:04,06:23:04,06:14:19,06:22:19,15.0,7.0,Thursday,2024-06-07,Humid
TRIP_1362,MH-BUS-6,MUM_Route_D,STOP_19,Belapur,09:28:55,09:47:55,22:12:10,22:15:10,0.0,0.0,Friday,2024-08-18,Rainy
TRIP_1363,MH-BUS-2,MUM_Route_A,STOP_6,Worli,23:19:54,23:22:54,06:46:58,06:47:58,28.0,26.0,Tuesday,2024-07-08,Humid
TRIP_1364,MH-BUS-1,MUM_Route_B,STOP_9,Bandra,23:09:30,23:07:30,13:58:08,14:08:08,23.0,0.0,Sunday,2024-06-15,Cloudy
TRIP_1365,MH-BUS-2,MUM_Route_D,STOP_20,Powai,05:09:45,05:06:45,17:37:55,17:41:55,13.0,13.0,Monday,2024-07-26,Monsoon
TRIP_1366,MH-BUS-1,MUM_Route_B,STOP_12,Kurla,14:36:41,14:42:41,20:12:04,20:17:04,39.0,9.0,Sunday,2024-08-07,Sunny
TRIP_1367,MH-BUS-6,MUM_Route_C,STOP_17,Lower Parel,22:45:15,22:56:15,10:54:40,11:03:40,9.0,0.0,Wednesday,2024-06-23,Monsoon
TRIP_1368,MH-BUS-9,MUM_Route_A,STOP_20,CST,08:44:59,08:55:59,02:09:52,02:15:52,31.0,,Sunday,2024-07-10,Rainy
TRIP_1369,MH-BUS-7,MUM_Route_D,STOP_20,Belapur,19:47:08,19:47:08,22:09:26,22:17:26,8.0,34.0,Wednesday,2024-08-29,Cloudy
TRIP_1370,MH-BUS-9,MUM_Route_A,STOP_10,Panvel,19:02:44,19:09:44,22:48:34,22:48:34,13.0,32.0,Sunday,2024-08-30,Monsoon
TRIP_1371,MH-BUS-2,MUM_Route_C,STOP_4,Kharghar,08:45:54,08:59:54,17:09:52,17:16:52,20.0,28.0,Thursday,2024-06-14,Sunny
TRIP_1372,MH-BUS-4,MUM_Route_B,STOP_3,Churchgate,20:15:29,20:25:29,00:12:21,00:21:21,39.0,0.0,Sunday,2024-08-15,Sunny
TRIP_1373,MH-BUS-9,MUM_Route_B,STOP_20,Worli,13:58:50,13:59:50,00:37:55,00:37:55,11.0,15.0,Wednesday,2024-06-26,Rainy
TRIP_1374,MH-BUS-10,MUM_Route_D,STOP_18,Panvel,07:13:49,07:31:49,16:40:23,16:49:23,39.0,31.0,Tuesday,2024-08-10,Humid
TRIP_1375,MH-BUS-9,MUM_Route_C,STOP_1,Andheri,10:12:11,10:11:11,10:44:07,10:44:07,22.0,36.0,Thursday,2024-08-16,Partly Cloudy
TRIP_1376,MH-BUS-8,MUM_Route_E,STOP_9,Powai,11:36:29,11:43:29,23:41:54,23:44:54,9.0,31.0,Wednesday,2024-07-13,Partly Cloudy
TRIP_1377,MH-BUS-9,MUM_Route_D,STOP_18,Belapur,04:26:38,04:33:38,18:54:42,18:57:42,16.0,52.0,Thursday,2024-08-24,Monsoon
TRIP_1378,MH-BUS-1,MUM_Route_B,STOP_4,Kharghar,13:31:28,13:47:28,09:22:07,09:30:07,22.0,19.0,Wednesday,2024-07-28,Humid
TRIP_1379,MH-BUS-1,MUM_Route_E,STOP_9,Powai,01:19:03,01:18:03,20:32:54,20:38:54,19.0,18.0,Friday,2024-06-29,Sunny
TRIP_1380,MH-BUS-1,MUM_Route_B,STOP_4,Borivali,05:38:09,05:54:09,15:37:46,15:47:46,34.0,15.0,Friday,2024-08-14,partly cloudy
TRIP_1381,MH-BUS-8,MUM_Route_D,STOP_12,Kharghar,07:13:23,07:14:23,01:53:01,01:53:01,24.0,0.0,Friday,2024-06-23,Sunny
TRIP_1382,MH-BUS-6,MUM_Route_A,STOP_17,Andheri,03:27:32,03:42:32,16:31:19,16:35:19,13.0,14.0,Wednesday,2024-08-20,Sunny
TRIP_1383,MH-BUS-8,MUM_Route_B,STOP_11,Colaba,22:54:28,22:57:28,20:37:32,20:41:32,0.0,10.0,Tuesday,2024-08-22,Humid
TRIP_1384,MH-BUS-5,MUM_Route_C,STOP_14,Bandra,03:09:45,03:19:45,10:30:08,10:35:08,37.0,,Thursday,2024-07-16,Cloudy
TRIP_1385,MH-BUS-10,MUM_Route_E,STOP_20,Ghatkopar,07:32:15,07:36:15,17:12:12,17:20:12,35.0,28.0,Thursday,2024-06-12,Rainy
TRIP_1386,MH-BUS-6,MUM_Route_A,STOP_10,Thane,03:19:06,03:21:06,05:34:31,05:39:31,22.0,27.0,Thursday,2024-08-16,Monsoon
TRIP_1387,MH-BUS-9,MUM_Route_D,STOP_4,Kharghar,06:35:46,06:40:46,01:50:37,02:00:37,0.0,22.0,Thursday,2024-06-07,Cloudy
TRIP_1388,MH-BUS-2,MUM_Route_B,STOP_20,Vashi,21:42:55,21:39:55,00:17:28,00:21:28,18.0,5.0,Sunday,2024-08-29,
TRIP_1389,MH-BUS-10,MUM_Route_E,STOP_9,Chembur,14:04:05,14:24:05,20:43:38,20:52:38,36.0,22.0,Thursday,2024-07-30,Humid
TRIP_1390,MH-BUS-10,MUM_Route_B,STOP_12,Borivali,22:10:53,22:18:53,09:27:49,09:34:49,26.0,0.0,Tuesday,2024-08-02,Sunny
TRIP_1391,MH-BUS-4,MUM_Route_B,STOP_15,Powai,08:36:21,08:39:21,14:40:41,14:43:41,49.0,0.0,Monday,2024-06-22,Cloudy
TRIP_1392,MH-BUS-6,MUM_Route_E,STOP_6,Vashi,01:29:19,01:34:19,12:19:57,12:22:57,27.0,3.0,Friday,2024-08-04,Partly Cloudy
TRIP_1393,MH-BUS-4,MUM_Route_B,STOP_9,Lower Parel,20:37:46,20:41:46,11:36:50,11:40:50,41.0,34.0,Friday,2024-07-29,Humid
TRIP_1394,MH-BUS-7,MUM_Route_D,STOP_3,Panvel,07:01:41,07:10:41,12:02:30,12:10:30,13.0,7.0,Friday,2024-06-26,Cloudy
TRIP_1395,MH-BUS-6,MUM_Route_D,STOP_4,Ghatkopar,20:10:08,20:05:08,12:00:42,12:04:42,44.0,19.0,Sunday,2024-07-02,Sunny
TRIP_1396,MH-BUS-3,MUM_Route_A,STOP_14,Nerul,08:14:54,08:11:54,17:01:15,,18.0,31.0,Tuesday,2024-08-25,Sunny
TRIP_1397,MH-BUS-9,MUM_Route_E,STOP_1,Nerul,19:42:02,19:45:02,10:59:16,11:05:16,,7.0,Monday,2024-07-04,Rainy
TRIP_1398,MH-BUS-10,MUM_Route_C,STOP_9,Powai,21:23:28,21:32:28,03:12:24,032224,27.0,17.0,Sunday,2024-07-12,Humid
TRIP_1399,MH-BUS-7,MUM_Route_D,STOP_2,Belapur,19:40:46,19:59:46,04:51:22,04:52:22,10.0,14.0,Tuesday,2024-06-04,Sunny
TRIP_1400,MH-BUS-10,MUM_Route_D,STOP_15,Churchgate,04:23:39,04:37:39,10:29:10,10:37:10,20.0,18.0,Sunday,2024-08-12,Monsoon
TRIP_1401,MH-BUS-9,MUM_Route_E,STOP_20,Mulund,23:52:47,23:49:47,13:14:25,13:21:25,35.0,19.0,Tuesday,2024-07-25,Cloudy
TRIP_1402,MH-BUS-4,MUM_Route_B,STOP_4,Powai,19:14:43,19:25:43,01:01:51,01:04:51,26.0,43.0,Sunday,2024-08-16,Humid
TRIP_1403,MH-BUS-7,MUM_Route_E,STOP_5,CST,08:35:35,08:42:35,08:52:30,08:57:30,27.0,14.0,Thursday,2024-08-28,Humid
TRIP_1404,MH-BUS-10,MUM_Route_A,STOP_15,Kurla,03:14:19,03:21:19,08:40:53,08:49:53,45.0,,Thursday,2024-07-02,Rainy
TRIP_1405,MH-BUS-5,MUM_Route_C,STOP_3,Powai,12:26:48,12:25:48,10:16:38,10:26:38,51.0,26.0,Thursday,2024-07-03,Partly Cloudy
TRIP_1406,MH-BUS-10,MUM_Route_C,STOP_1,Belapur,01:26:08,01:27:08,20:19:00,20:23:00,32.0,28.0,Saturday,2024-06-29,Rainy
TRIP_1407,MH-BUS-10,MUM_Route_A,STOP_5,Colaba,02:35:41,02:44:41,16:48:16,16:58:16,24.0,5.0,Tuesday,2024-06-19,Humid
TRIP_1408,MH-BUS-9,MUM_Route_C,STOP_16,Thane,05:29:30,05:28:30,23:51:03,23:55:03,31.0,27.0,Monday,2024-07-29,Monsoon
TRIP_1409,MH-BUS-10,MUM_Route_A,STOP_20,Vashi,19:58:20,20:04:20,23:58:42,23:59:42,49.0,15.0,Saturday,2024-07-09,Monsoon
TRIP_1410,MH-BUS-4,MUM_Route_E,STOP_15,Lower Parel,02:49:30,03:06:30,19:06:49,19:16:49,29.0,19.0,Thursday,2024-08-24,Rainy
TRIP_1411,MH-BUS-10,MUM_Route_C,STOP_17,Churchgate,05:07:24,05:07:24,14:56:52,15:01:52,9.0,12.0,Tuesday,2024-06-23,Monsoon
TRIP_1412,MH-BUS-9,MUM_Route_B,STOP_11,Ghatkopar,21:56:11,22:14:11,19:57:29,19:57:29,22.0,8.0,Sunday,2024-08-18,Cloudy
TRIP_1413,MH-BUS-6,MUM_Route_D,STOP_4,Churchgate,10:32:36,10:37:36,20:02:20,20:11:20,,16.0,Saturday,2024-06-12,Sunny
TRIP_1414,MH-BUS-1,MUM_Route_A,STOP_13,Lower Parel,12:35:16,12:36:16,12:15:04,12:21:04,,36.0,Monday,2024-08-19,Monsoon
TRIP_1415,MH-BUS-9,MUM_Route_D,STOP_7,Kharghar,14:45:49,14:41:49,18:34:06,18:36:06,36.0,8.0,Sunday,2024-08-10,Humid
TRIP_1416,MH-BUS-9,MUM_Route_E,STOP_20,Thane,15:31:59,15:28:59,12:03:28,12:04:28,23.0,0.0,Sunday,2024-06-09,Monsoon
TRIP_1417,MH-BUS-9,MUM_Route_A,STOP_10,Borivali,15:00:07,15:08:07,12:41:20,12:51:20,56.0,3.0,Friday,2024-06-15,Partly Cloudy
TRIP_1418,MH-BUS-10,MUM_Route_A,STOP_20,Vashi,15:51:07,16:05:07,14:42:31,14:48:31,15.0,30.0,Saturday,2024-07-26,Rainy
TRIP_1419,MH-BUS-7,MUM_Route_B,STOP_7,Nerul,04:47:26,04:57:26,21:39:00,21:41:00,19.0,,Sunday,2024-06-11,
TRIP_1420,MH-BUS-7,MUM_Route_B,STOP_17,Powai,19:48:55,19:53:55,02:04:52,02:06:52,23.0,9.0,Monday,2024-08-22,Sunny
TRIP_1421,MH-BUS-3,MUM_Route_B,STOP_6,Andheri,05:50:18,06:01:18,01:45:31,01:55:31,41.0,29.0,Tuesday,2024-06-05,Sunny
TRIP_1422,MH-BUS-10,MUM_Route_E,STOP_14,Chembur,04:11:11,04:12:11,02:23:37,02:26:37,24.0,,Monday,2024-07-17,Sunny
TRIP_1423,MH-BUS-7,MUM_Route_E,STOP_12,Vashi,08:20:42,08:31:42,16:26:54,162754,32.0,-2.0,Sunday,2024-07-01,
TRIP_1424,MH-BUS-5,MUM_Route_B,STOP_17,Belapur,16:38:32,16:46:32,08:02:49,08:08:49,0.0,0.0,Saturday,2024-07-17,Rainy
TRIP_1425,MH-BUS-5,MUM_Route_C,STOP_20,Chembur,04:38:35,04:58:35,02:04:55,02:07:55,29.0,42.0,Monday,2024-06-08,Sunny
TRIP_1426,MH-BUS-7,MUM_Route_B,STOP_9,Borivali,05:11:17,05:15:17,04:25:24,04:29:24,23.0,41.0,Friday,2024-06-02,Monsoon
TRIP_1427,MH-BUS-6,MUM_Route_C,STOP_10,Andheri,20:27:15,20:25:15,14:29:20,14:33:20,27.0,4.0,Wednesday,2024-06-04,Humid
TRIP_1428,MH-BUS-8,MUM_Route_C,STOP_7,Vashi,00:05:07,00:01:07,01:37:30,01:43:30,36.0,41.0,Monday,2024-08-01,Monsoon
TRIP_1429,MH-BUS-6,MUM_Route_C,STOP_20,Chembur,16:19:13,16:15:13,08:59:33,09:03:33,41.0,19.0,Thursday,2024-08-03,Cloudy
TRIP_1430,MH-BUS-1,MUM_Route_E,STOP_4,Powai,07:56:31,08:06:31,22:22:48,22:27:48,16.0,26.0,Saturday,2024-08-06,Cloudy
TRIP_1431,MH-BUS-8,MUM_Route_E,STOP_17,CST,15:16:48,15:34:48,05:21:08,05:25:08,10.0,0.0,Monday,2024-07-22,Rainy
TRIP_1432,MH-BUS-10,MUM_Route_D,STOP_16,Belapur,17:46:27,17:49:27,06:15:10,06:17:10,35.0,48.0,Tuesday,2024-08-18,Monsoon
TRIP_1433,MH-BUS-3,MUM_Route_E,STOP_14,Thane,10:52:19,11:02:19,05:50:02,05:59:02,31.0,11.0,Tuesday,2024-08-03,Sunny
TRIP_1434,MH-BUS-9,MUM_Route_A,STOP_6,Powai,03:02:47,03:17:47,11:05:47,11:06:47,,3.0,Monday,2024-08-18,Sunny
TRIP_1435,MH-BUS-10,MUM_Route_C,STOP_9,Powai,17:31:41,17:39:41,01:43:51,01:45:51,9.0,20.0,Wednesday,2024-06-28,Rainy
TRIP_1436,MH-BUS-3,MUM_Route_C,STOP_2,Ghatkopar,12:46:16,13:06:16,00:30:56,00:36:56,19.0,13.0,Monday,2024-07-02,Partly Cloudy
TRIP_1437,MH-BUS-2,MUM_Route_C,STOP_8,Lower Parel,13:54:49,14:06:49,22:26:58,22:33:58,14.0,19.0,Monday,2024-06-26,Cloudy
TRIP_1438,MH-BUS-10,MUM_Route_B,STOP_2,Thane,22:19:19,22:31:19,14:31:34,14:32:34,0.0,28.0,Sunday,2024-06-22,Sunny
TRIP_1439,MH-BUS-7,MUM_Route_B,STOP_9,Chembur,03:15:52,03:19:52,16:50:34,16:53:34,26.0,37.0,Friday,2024-06-15,Sunny
TRIP_1440,MH-BUS-1,MUM_Route_D,STOP_13,Kharghar,04:27:44,04:40:44,15:08:02,15:09:02,23.0,17.0,Wednesday,2024-08-15,Partly Cloudy
TRIP_1441,MH-BUS-3,MUM_Route_D,STOP_8,Thane,11:35:20,11:37:20,00:13:40,00:20:40,12.0,23.0,Monday,2024-08-17,Partly Cloudy
TRIP_1442,MH-BUS-8,MUM_Route_D,STOP_13,Ghatkopar,08:53:58,08:52:58,16:31:33,16:31:33,24.0,37.0,Monday,2024-08-28,Sunny
TRIP_1443,MH-BUS-8,MUM_Route_C,STOP_19,Powai,05:33:40,05:38:40,01:08:40,01:09:40,37.0,23.0,Sunday,2024-06-23,Rainy
TRIP_1444,MH-BUS-1,MUM_Route_D,STOP_3,Powai,06:17:19,06:25:19,22:42:26,,15.0,0.0,Friday,2024-08-09,Cloudy
TRIP_1445,MH-BUS-7,MUM_Route_C,STOP_6,Belapur,08:15:31,08:17:31,00:12:04,00:12:04,30.0,0.0,Monday,2024-08-29,Humid
TRIP_1446,MH-BUS-6,MUM_Route_E,STOP_20,Churchgate,17:22:54,17:40:54,17:27:24,17:32:24,32.0,27.0,Wednesday,2024-08-27,Sunny
TRIP_1447,MH-BUS-7,MUM_Route_C,STOP_13,Chembur,12:10:32,12:24:32,01:59:21,02:06:21,,18.0,Saturday,2024-08-10,Rainy
TRIP_1448,MH-BUS-1,MUM_Route_B,STOP_1,Nerul,05:51:12,05:53:12,09:12:35,09:21:35,25.0,31.0,Sunday,2024-08-09,Cloudy
TRIP_1449,MH-BUS-4,MUM_Route_C,STOP_11,Dadar,10:40:32,10:38:32,23:55:39,00:01:39,0.0,6.0,Monday,2024-08-10,
TRIP_1450,MH-BUS-4,MUM_Route_A,STOP_2,Borivali,14:43:37,14:48:37,00:15:46,00:17:46,30.0,32.0,Thursday,2024-07-31,Cloudy
TRIP_1451,MH-BUS-1,MUM_Route_C,STOP_10,Panvel,02:27:59,02:47:59,16:16:43,16:22:43,40.0,6.0,Thursday,2024-08-30,Rainy
TRIP_1452,MH-BUS-6,MUM_Route_E,STOP_9,Colaba,21:14:31,,22:53:59,22:53:59,36.0,32.0,Saturday,2024-06-24,Humid
TRIP_1453,MH-BUS-1,MUM_Route_C,STOP_13,Nerul,08:49:37,09:08:37,04:48:59,04:55:59,20.0,18.0,Thursday,2024-07-12,Partly Cloudy
TRIP_1454,MH-BUS-2,MUM_Route_E,STOP_11,Andheri,16:27:05,16:36:05,17:46:02,17:47:02,28.0,21.0,Sunday,2024-08-03,Cloudy
TRIP_1455,MH-BUS-7,MUM_Route_C,STOP_20,Chembur,11:55:46,11:50:46,22:48:03,22:54:03,24.0,0.0,Sunday,2024-07-06,Humid
TRIP_1456,MH-BUS-1,MUM_Route_B,STOP_3,CST,18:29:30,18:42:30,07:50:02,07:59:02,30.0,,Thursday,2024-06-11,Sunny
TRIP_1457,MH-BUS-9,MUM_Route_D,STOP_6,Powai,17:19:24,17:19:24,20:59:46,,31.0,30.0,Tuesday,2024-06-28,Humid
TRIP_1458,MH-BUS-9,MUM_Route_C,STOP_13,Andheri,02:42:14,02:52:14,08:01:16,08:04:16,41.0,32.0,Friday,2024-07-26,Humid
TRIP_1459,MH-BUS-10,MUM_Route_B,STOP_4,Panvel,08:59:16,09:18:16,11:38:06,,40.0,14.0,Monday,2024-07-22,Monsoon
TRIP_1460,MH-BUS-2,MUM_Route_B,STOP_16,Andheri,07:01:27,07:18:27,09:07:05,09:14:05,29.0,17.0,Friday,2024-06-08,Cloudy
TRIP_1461,MH-BUS-5,MUM_Route_B,STOP_2,Kharghar,08:45:27,08:49:27,23:54:47,23:59:47,22.0,0.0,Friday,2024-06-15,Cloudy
TRIP_1462,MH-BUS-4,MUM_Route_E,STOP_10,Belapur,14:28:19,,22:05:11,22:05:11,,16.0,Sunday,2024-06-16,Rainy
TRIP_1463,MH-BUS-8,MUM_Route_E,STOP_7,Dadar,23:58:01,23:58:01,20:15:04,20:21:04,29.0,13.0,Wednesday,2024-08-03,Monsoon
TRIP_1464,MH-BUS-3,MUM_Route_C,STOP_1,Lower Parel,18:49:32,19:07:32,15:08:57,,9.0,11.0,Thursday,2024-06-09,Humid
TRIP_1465,MH-BUS-10,MUM_Route_B,STOP_6,Belapur,07:46:07,07:45:07,07:41:59,07:46:59,63.0,38.0,Thursday,2024-06-19,Monsoon
TRIP_1466,MH-BUS-8,MUM_Route_D,STOP_13,Churchgate,11:00:01,11:17:01,09:08:38,09:16:38,4.0,16.0,Monday,2024-07-20,MONSOON
TRIP_1467,MH-BUS-3,MUM_Route_D,STOP_18,Lower Parel,01:32:44,01:47:44,00:06:46,00:12:46,39.0,38.0,Monday,2024-06-22,Monsoon
TRIP_1468,MH-BUS-4,MUM_Route_D,STOP_11,Kharghar,02:54:47,03:10:47,22:53:40,22:53:40,37.0,53.0,Saturday,2024-06-17,Cloudy
TRIP_1469,MH-BUS-8,MUM_Route_E,STOP_11,Belapur,01:42:05,01:57:05,23:01:18,23:10:18,13.0,41.0,Tuesday,2024-07-10,Rainy
TRIP_1470,MH-BUS-3,MUM_Route_E,STOP_16,Panvel,10:57:00,11:02:00,15:52:09,16:00:09,45.0,9.0,Wednesday,2024-06-03,Cloudy
TRIP_1471,MH-BUS-7,MUM_Route_E,STOP_7,Belapur,17:19:11,17:36:11,10:49:37,10:51:37,0.0,,Friday,2024-06-24,Humid
TRIP_1472,MH-BUS-7,MUM_Route_A,STOP_11,Churchgate,11:57:43,11:52:43,19:48:16,19:54:16,38.0,29.0,Thursday,2024-06-04,
TRIP_1473,MH-BUS-10,MUM_Route_D,STOP_12,Nerul,06:31:38,06:41:38,03:10:32,03:10:32,7.0,12.0,Saturday,2024-06-08,Partly Cloudy
TRIP_1474,MH-BUS-4,MUM_Route_A,STOP_11,Colaba,21:37:06,21:44:06,11:00:29,11:02:29,21.0,0.0,Thursday,2024-08-02,Humid
TRIP_1475,MH-BUS-10,MUM_Route_E,STOP_14,Thane,16:46:11,16:50:11,17:47:53,17:53:53,6.0,25.0,Saturday,2024-08-17,Monsoon
TRIP_1476,MH-BUS-3,MUM_Route_A,STOP_20,Powai,08:30:32,08:33:32,11:56:17,12:02:17,21.0,13.0,Saturday,2024-07-23,Monsoon
TRIP_1477,MH-BUS-8,MUM_Route_B,STOP_14,Belapur,02:12:41,02:18:41,05:54:31,06:04:31,15.0,22.0,Friday,2024-06-14,Humid
TRIP_1478,MH-BUS-10,MUM_Route_D,STOP_2,Colaba,15:25:47,15:42:47,19:01:59,19:08:59,37.0,16.0,Thursday,2024-06-07,Humid
TRIP_1479,MH-BUS-2,MUM_Route_D,STOP_13,Nerul,06:16:14,06:35:14,18:22:46,18:31:46,54.0,29.0,Saturday,2024-07-01,Partly Cloudy
TRIP_1480,MH-BUS-1,MUM_Route_C,STOP_10,CST,17:43:50,17:53:50,19:40:40,19:42:40,12.0,5.0,Monday,2024-08-07,Humid
TRIP_1481,MH-BUS-4,MUM_Route_D,STOP_20,Lower Parel,06:54:38,07:05:38,07:08:26,07:10:26,6.0,27.0,Saturday,2024-07-11,Monsoon
TRIP_1482,MH-BUS-3,MUM_Route_D,STOP_15,Belapur,10:31:45,10:40:45,07:40:28,07:44:28,7.0,5.0,Tuesday,2024-06-09,Cloudy
TRIP_1483,MH-BUS-8,MUM_Route_E,STOP_2,Lower Parel,11:06:43,11:11:43,15:24:38,15:33:38,1.0,19.0,Tuesday,2024-06-25,Sunny
TRIP_1484,MH-BUS-5,MUM_Route_A,STOP_16,Kurla,19:45:33,19:42:33,02:03:28,02:03:28,19.0,24.0,Sunday,2024-06-05,Monsoon
TRIP_1485,MH-BUS-8,MUM_Route_B,STOP_2,Kharghar,00:32:03,00:33:03,15:45:51,15:48:51,26.0,21.0,Sunday,2024-08-06,Cloudy
TRIP_1486,MH-BUS-8,MUM_Route_A,STOP_5,Worli,13:40:19,13:54:19,02:32:04,02:39:04,25.0,21.0,Friday,2024-08-07,Partly Cloudy
TRIP_1487,MH-BUS-2,MUM_Route_D,STOP_17,Mulund,11:23:06,11:19:06,17:24:32,17:24:32,33.0,20.0,Monday,2024-06-13,Sunny
TRIP_1488,MH-BUS-10,MUM_Route_C,STOP_15,Churchgate,17:29:44,17:31:44,21:39:21,21:39:21,33.0,0.0,Sunday,2024-06-27,Cloudy
TRIP_1489,MH-BUS-1,MUM_Route_E,STOP_16,Andheri,16:57:25,17:01:25,09:36:58,09:36:58,19.0,16.0,Friday,2024-07-21,Partly Cloudy
TRIP_1490,MH-BUS-1,MUM_Route_B,STOP_7,Thane,03:14:53,03:11:53,22:37:08,10:40:08PM,28.0,25.0,Monday,2024-07-16,Partly Cloudy
TRIP_1491,MH-BUS-4,MUM_Route_D,STOP_8,Worli,04:50:54,05:05:54,08:17:35,08:18:35,11.0,0.0,Thursday,2024-06-07,Rainy
TRIP_1492,MH-BUS-6,MUM_Route_E,STOP_13,Worli,07:35:41,07:41:41,14:12:25,14:12:25,31.0,30.0,Monday,2024-06-14,Cloudy
TRIP_1493,MH-BUS-6,MUM_Route_A,STOP_3,Vashi,01:40:19,01:55:19,20:15:55,20:22:55,19.0,21.0,Tuesday,2024-07-29,Humid
TRIP_1494,MH-BUS-1,MUM_Route_D,STOP_7,Chembur,21:28:56,21:25:56,02:08:47,02:18:47,24.0,3.0,Monday,2024-08-18,Cloudy
TRIP_1495,MH-BUS-9,MUM_Route_E,STOP_3,Chembur,23:04:39,23:20:39,15:14:38,15:23:38,0.0,25.0,Sunday,2024-06-24,Sunny
TRIP_1496,MH-BUS-1,MUM_Route_C,STOP_8,Colaba,22:55:11,23:09:11,05:51:19,06:00:19,29.0,25.0,Friday,2024-06-03,Cloudy
TRIP_1497,MH-BUS-5,MUM_Route_A,STOP_14,Powai,07:01:08,07:06:08,22:07:39,22:17:39,10.0,16.0,Wednesday,2024-08-08,Sunny
TRIP_1498,MH-BUS-10,MUM_Route_D,STOP_1,Colaba,00:04:10,00:06:10,20:49:41,20:55:41,0.0,,Saturday,2024-08-22,Humid
TRIP_1499,MH-BUS-4,MUM_Route_E,STOP_18,Mulund,05:21:50,05:21:50,23:52:38,23:54:38,21.0,28.0,Wednesday,2024-07-19,Humid
TRIP_1500,MH-BUS-2,MUM_Route_B,STOP_8,Thane,01:22:38,01:42:38,05:19:46,05:23:46,23.0,5.0,Wednesday,2024-08-29,Monsoon
